{
  "venues": [
    {
      "id": 1,
      "location": { "postalCode": "00-915", "name": "Lake Torrancefort" },
      "pricePerNightInEUR": "696.00",
      "rating": 3.9,
      "capacity": 7,
      "name": "Wayward Wind",
      "albumId": 100
    },
    {
      "id": 2,
      "location": { "postalCode": "39-632", "name": "New Lydiaport" },
      "pricePerNightInEUR": "995.00",
      "rating": 2.4,
      "capacity": 11,
      "name": "Kryptonite",
      "albumId": 99
    },
    {
      "id": 3,
      "location": { "postalCode": "34-937", "name": "Bradtkeborough" },
      "pricePerNightInEUR": "890.00",
      "rating": 1.5,
      "capacity": 2,
      "name": "Baby Love",
      "albumId": 98
    },
    {
      "id": 4,
      "location": { "postalCode": "87-080", "name": "East Jo" },
      "pricePerNightInEUR": "577.00",
      "rating": 1.7,
      "capacity": 3,
      "name": "I Walk the Line",
      "albumId": 97
    },
    {
      "id": 5,
      "location": { "postalCode": "31-748", "name": "North Roelside" },
      "pricePerNightInEUR": "505.00",
      "rating": 1.6,
      "capacity": 11,
      "name": "Want Ads",
      "albumId": 96
    },
    {
      "id": 6,
      "location": { "postalCode": "13-401", "name": "North Shadstead" },
      "pricePerNightInEUR": "428.00",
      "rating": 2.5,
      "capacity": 7,
      "name": "More Than Words",
      "albumId": 95
    },
    {
      "id": 7,
      "location": { "postalCode": "54-135", "name": "Abbottworth" },
      "pricePerNightInEUR": "875.00",
      "rating": 2.9,
      "capacity": 5,
      "name": "Woman",
      "albumId": 94
    },
    {
      "id": 8,
      "location": { "postalCode": "81-383", "name": "North Zelma" },
      "pricePerNightInEUR": "449.00",
      "rating": 4.6,
      "capacity": 7,
      "name": "Big Girls Don't Cry",
      "albumId": 93
    },
    {
      "id": 9,
      "location": { "postalCode": "34-295", "name": "West Dejonberg" },
      "pricePerNightInEUR": "868.00",
      "rating": 2.3,
      "capacity": 2,
      "name": "Candy Man",
      "albumId": 92
    },
    {
      "id": 10,
      "location": { "postalCode": "73-193", "name": "Binghamton" },
      "pricePerNightInEUR": "840.00",
      "rating": 3.1,
      "capacity": 5,
      "name": "Do Wah Diddy Diddy",
      "albumId": 91
    },
    {
      "id": 11,
      "location": { "postalCode": "42-808", "name": "Izaiahview" },
      "pricePerNightInEUR": "794.00",
      "rating": 4.4,
      "capacity": 12,
      "name": "Have You Ever Really Loved a Woman?",
      "albumId": 90
    },
    {
      "id": 12,
      "location": { "postalCode": "59-134", "name": "Wittingfort" },
      "pricePerNightInEUR": "677.00",
      "rating": 4.4,
      "capacity": 9,
      "name": "The Morning After",
      "albumId": 89
    },
    {
      "id": 13,
      "location": { "postalCode": "08-943", "name": "Yundtmouth" },
      "pricePerNightInEUR": "424.00",
      "rating": 2.4,
      "capacity": 5,
      "name": "Soldier Boy",
      "albumId": 88
    },
    {
      "id": 14,
      "location": { "postalCode": "70-137", "name": "South Koreystead" },
      "pricePerNightInEUR": "683.00",
      "rating": 4.7,
      "capacity": 7,
      "name": "I Gotta Feeling",
      "albumId": 87
    },
    {
      "id": 15,
      "location": { "postalCode": "11-397", "name": "Naderbury" },
      "pricePerNightInEUR": "161.00",
      "rating": 2.4,
      "capacity": 1,
      "name": "Gypsies",
      "albumId": 86
    },
    {
      "id": 16,
      "location": { "postalCode": "64-043", "name": "Kiehnville" },
      "pricePerNightInEUR": "198.00",
      "rating": 2.8,
      "capacity": 9,
      "name": "Red Red Wine",
      "albumId": 85
    },
    {
      "id": 17,
      "location": { "postalCode": "72-050", "name": "South Brandon" },
      "pricePerNightInEUR": "116.00",
      "rating": 3,
      "capacity": 8,
      "name": "Mr Tambourine Man",
      "albumId": 84
    },
    {
      "id": 18,
      "location": { "postalCode": "13-766", "name": "Lake Zander" },
      "pricePerNightInEUR": "804.00",
      "rating": 1.8,
      "capacity": 11,
      "name": "You Were Meant for Me",
      "albumId": 83
    },
    {
      "id": 19,
      "location": { "postalCode": "99-922", "name": "Jacobihaven" },
      "pricePerNightInEUR": "580.00",
      "rating": 2.1,
      "capacity": 4,
      "name": "Don't You (Forget About Me)",
      "albumId": 82
    },
    {
      "id": 20,
      "location": { "postalCode": "44-447", "name": "West Barrett" },
      "pricePerNightInEUR": "864.00",
      "rating": 3.9,
      "capacity": 7,
      "name": "You Send Me",
      "albumId": 81
    },
    {
      "id": 21,
      "location": { "postalCode": "51-438", "name": "Janesville" },
      "pricePerNightInEUR": "30.00",
      "rating": 2.2,
      "capacity": 8,
      "name": "Stronger",
      "albumId": 80
    },
    {
      "id": 22,
      "location": { "postalCode": "03-777", "name": "Kentwood" },
      "pricePerNightInEUR": "283.00",
      "rating": 3.6,
      "capacity": 11,
      "name": "Open Arms",
      "albumId": 79
    },
    {
      "id": 23,
      "location": { "postalCode": "06-486", "name": "Waelchiville" },
      "pricePerNightInEUR": "362.00",
      "rating": 1.5,
      "capacity": 4,
      "name": "I Will Always Love You",
      "albumId": 78
    },
    {
      "id": 24,
      "location": { "postalCode": "95-028", "name": "East Tressie" },
      "pricePerNightInEUR": "464.00",
      "rating": 2.3,
      "capacity": 12,
      "name": "Moonlight Cocktail",
      "albumId": 77
    },
    {
      "id": 25,
      "location": { "postalCode": "14-807", "name": "North Trey" },
      "pricePerNightInEUR": "382.00",
      "rating": 2.7,
      "capacity": 2,
      "name": "Let's Hear it For the Boy",
      "albumId": 76
    },
    {
      "id": 26,
      "location": { "postalCode": "30-984", "name": "Jastfield" },
      "pricePerNightInEUR": "221.00",
      "rating": 2.7,
      "capacity": 7,
      "name": "Shake You Down",
      "albumId": 75
    },
    {
      "id": 27,
      "location": { "postalCode": "02-979", "name": "New Walton" },
      "pricePerNightInEUR": "208.00",
      "rating": 4.3,
      "capacity": 12,
      "name": "Tears in Heaven",
      "albumId": 74
    },
    {
      "id": 28,
      "location": { "postalCode": "75-838", "name": "Frankside" },
      "pricePerNightInEUR": "720.00",
      "rating": 4.7,
      "capacity": 11,
      "name": "Kiss On My List",
      "albumId": 73
    },
    {
      "id": 29,
      "location": { "postalCode": "51-179", "name": "St. Peters" },
      "pricePerNightInEUR": "978.00",
      "rating": 5,
      "capacity": 12,
      "name": "Harper Valley PTA",
      "albumId": 72
    },
    {
      "id": 30,
      "location": { "postalCode": "24-046", "name": "Fort Stephonshire" },
      "pricePerNightInEUR": "435.00",
      "rating": 2.7,
      "capacity": 10,
      "name": "Indian Reservation (The Lament Of The Cherokee Reservation Indian)",
      "albumId": 71
    },
    {
      "id": 31,
      "location": { "postalCode": "50-991", "name": "North Jadonside" },
      "pricePerNightInEUR": "721.00",
      "rating": 4.7,
      "capacity": 9,
      "name": "I'm Walking Behind You",
      "albumId": 70
    },
    {
      "id": 32,
      "location": { "postalCode": "48-482", "name": "Franciscofort" },
      "pricePerNightInEUR": "914.00",
      "rating": 3.5,
      "capacity": 4,
      "name": "Do You Love Me?",
      "albumId": 69
    },
    {
      "id": 33,
      "location": { "postalCode": "76-577", "name": "Nicolasberg" },
      "pricePerNightInEUR": "603.00",
      "rating": 2.2,
      "capacity": 8,
      "name": "Whoomp! (There it Is)",
      "albumId": 68
    },
    {
      "id": 34,
      "location": { "postalCode": "29-581", "name": "Keelyville" },
      "pricePerNightInEUR": "873.00",
      "rating": 2.2,
      "capacity": 5,
      "name": "That's the Way (I Like It)",
      "albumId": 67
    },
    {
      "id": 35,
      "location": { "postalCode": "86-571", "name": "New Arielland" },
      "pricePerNightInEUR": "162.00",
      "rating": 2.3,
      "capacity": 11,
      "name": "There goes my baby",
      "albumId": 66
    },
    {
      "id": 36,
      "location": { "postalCode": "56-371", "name": "Joshborough" },
      "pricePerNightInEUR": "950.00",
      "rating": 4.5,
      "capacity": 2,
      "name": "As Time Goes By",
      "albumId": 65
    },
    {
      "id": 37,
      "location": { "postalCode": "35-329", "name": "South Louisaberg" },
      "pricePerNightInEUR": "203.00",
      "rating": 4.7,
      "capacity": 6,
      "name": "Don't Worry Be Happy",
      "albumId": 64
    },
    {
      "id": 38,
      "location": { "postalCode": "95-803", "name": "Harrisburg" },
      "pricePerNightInEUR": "69.00",
      "rating": 1.8,
      "capacity": 2,
      "name": "The Christmas Song (Chestnuts Roasting On An Open Fire)",
      "albumId": 63
    },
    {
      "id": 39,
      "location": { "postalCode": "52-561", "name": "Rupertville" },
      "pricePerNightInEUR": "392.00",
      "rating": 3.6,
      "capacity": 4,
      "name": "Dreamlover",
      "albumId": 62
    },
    {
      "id": 40,
      "location": { "postalCode": "91-256", "name": "Hanehaven" },
      "pricePerNightInEUR": "849.00",
      "rating": 1.7,
      "capacity": 9,
      "name": "St George & the Dragonette",
      "albumId": 61
    },
    {
      "id": 41,
      "location": { "postalCode": "76-883", "name": "Tillmanside" },
      "pricePerNightInEUR": "54.00",
      "rating": 3.2,
      "capacity": 5,
      "name": "Whispering",
      "albumId": 60
    },
    {
      "id": 42,
      "location": { "postalCode": "59-873", "name": "Elfriedaville" },
      "pricePerNightInEUR": "17.00",
      "rating": 4.3,
      "capacity": 10,
      "name": "Party Rock Anthem",
      "albumId": 59
    },
    {
      "id": 43,
      "location": { "postalCode": "57-557", "name": "East Cassandreworth" },
      "pricePerNightInEUR": "298.00",
      "rating": 2.8,
      "capacity": 8,
      "name": "Say My Name",
      "albumId": 58
    },
    {
      "id": 44,
      "location": { "postalCode": "48-740", "name": "Fort Jamesonbury" },
      "pricePerNightInEUR": "124.00",
      "rating": 1.6,
      "capacity": 6,
      "name": "A String of Pearls",
      "albumId": 57
    },
    {
      "id": 45,
      "location": { "postalCode": "07-286", "name": "New Westleyfield" },
      "pricePerNightInEUR": "694.00",
      "rating": 3.2,
      "capacity": 4,
      "name": "Jump",
      "albumId": 56
    },
    {
      "id": 46,
      "location": { "postalCode": "30-095", "name": "Fort Dimitri" },
      "pricePerNightInEUR": "769.00",
      "rating": 2.4,
      "capacity": 12,
      "name": "We Didn't Start the Fire",
      "albumId": 55
    },
    {
      "id": 47,
      "location": { "postalCode": "68-562", "name": "East Camila" },
      "pricePerNightInEUR": "648.00",
      "rating": 2.4,
      "capacity": 12,
      "name": "Ray of Light",
      "albumId": 54
    },
    {
      "id": 48,
      "location": { "postalCode": "78-718", "name": "Jaskolskiton" },
      "pricePerNightInEUR": "151.00",
      "rating": 4.1,
      "capacity": 9,
      "name": "Be My Baby",
      "albumId": 53
    },
    {
      "id": 49,
      "location": { "postalCode": "56-758", "name": "New Donavontown" },
      "pricePerNightInEUR": "184.00",
      "rating": 1,
      "capacity": 9,
      "name": "Let Me Call You Sweetheart",
      "albumId": 52
    },
    {
      "id": 50,
      "location": { "postalCode": "55-925", "name": "Fort Aniyahville" },
      "pricePerNightInEUR": "657.00",
      "rating": 2.1,
      "capacity": 1,
      "name": "That Lucky Old Sun (Just Rolls Around Heaven All Day)",
      "albumId": 51
    },
    {
      "id": 51,
      "location": { "postalCode": "76-589", "name": "South Valley" },
      "pricePerNightInEUR": "665.00",
      "rating": 2.6,
      "capacity": 10,
      "name": "Whole Lotta Love",
      "albumId": 50
    },
    {
      "id": 52,
      "location": { "postalCode": "74-508", "name": "Lake Jordon" },
      "pricePerNightInEUR": "400.00",
      "rating": 2.3,
      "capacity": 11,
      "name": "Kiss",
      "albumId": 49
    },
    {
      "id": 53,
      "location": { "postalCode": "83-029", "name": "East Trudie" },
      "pricePerNightInEUR": "510.00",
      "rating": 4.5,
      "capacity": 4,
      "name": "Suspicious Minds",
      "albumId": 48
    },
    {
      "id": 54,
      "location": { "postalCode": "28-586", "name": "Chattanooga" },
      "pricePerNightInEUR": "603.00",
      "rating": 2.7,
      "capacity": 5,
      "name": "Hanky Panky",
      "albumId": 47
    },
    {
      "id": 55,
      "location": { "postalCode": "24-259", "name": "New Wandastead" },
      "pricePerNightInEUR": "960.00",
      "rating": 1.1,
      "capacity": 11,
      "name": "Car Wash",
      "albumId": 46
    },
    {
      "id": 56,
      "location": { "postalCode": "23-544", "name": "Pfefferburgh" },
      "pricePerNightInEUR": "897.00",
      "rating": 4.2,
      "capacity": 6,
      "name": "Hang On Sloopy",
      "albumId": 45
    },
    {
      "id": 57,
      "location": { "postalCode": "49-972", "name": "Franciscachester" },
      "pricePerNightInEUR": "55.00",
      "rating": 4.7,
      "capacity": 12,
      "name": "Magic",
      "albumId": 44
    },
    {
      "id": 58,
      "location": { "postalCode": "12-927", "name": "New Zoie" },
      "pricePerNightInEUR": "957.00",
      "rating": 3,
      "capacity": 3,
      "name": "Harbour Lights",
      "albumId": 43
    },
    {
      "id": 59,
      "location": { "postalCode": "55-155", "name": "Grand Rapids" },
      "pricePerNightInEUR": "571.00",
      "rating": 1.3,
      "capacity": 11,
      "name": "Pon De Replay",
      "albumId": 42
    },
    {
      "id": 60,
      "location": { "postalCode": "62-820", "name": "Arden-Arcade" },
      "pricePerNightInEUR": "232.00",
      "rating": 1.6,
      "capacity": 8,
      "name": "Like a Virgin",
      "albumId": 41
    },
    {
      "id": 61,
      "location": { "postalCode": "18-541", "name": "Fort Shawn" },
      "pricePerNightInEUR": "319.00",
      "rating": 1.7,
      "capacity": 2,
      "name": "Jailhouse Rock",
      "albumId": 40
    },
    {
      "id": 62,
      "location": { "postalCode": "39-013", "name": "Rogers" },
      "pricePerNightInEUR": "214.00",
      "rating": 1,
      "capacity": 6,
      "name": "So Much in Love",
      "albumId": 39
    },
    {
      "id": 63,
      "location": { "postalCode": "95-379", "name": "West Ivy" },
      "pricePerNightInEUR": "115.00",
      "rating": 4,
      "capacity": 6,
      "name": "Unchained Melody",
      "albumId": 38
    },
    {
      "id": 64,
      "location": { "postalCode": "41-306", "name": "Lesleymouth" },
      "pricePerNightInEUR": "329.00",
      "rating": 2,
      "capacity": 11,
      "name": "Flashdance. What a Feeling",
      "albumId": 37
    },
    {
      "id": 65,
      "location": { "postalCode": "29-971", "name": "Tinatown" },
      "pricePerNightInEUR": "111.00",
      "rating": 3,
      "capacity": 9,
      "name": "Harbour Lights",
      "albumId": 36
    },
    {
      "id": 66,
      "location": { "postalCode": "53-438", "name": "South Daryl" },
      "pricePerNightInEUR": "446.00",
      "rating": 2.7,
      "capacity": 8,
      "name": "Mickey",
      "albumId": 35
    },
    {
      "id": 67,
      "location": { "postalCode": "38-862", "name": "Frankieshire" },
      "pricePerNightInEUR": "368.00",
      "rating": 2.7,
      "capacity": 1,
      "name": "Whoomp! (There it Is)",
      "albumId": 34
    },
    {
      "id": 68,
      "location": { "postalCode": "34-336", "name": "Cindyport" },
      "pricePerNightInEUR": "328.00",
      "rating": 4.5,
      "capacity": 5,
      "name": "Da Doo Ron Ron (When He Walked Me Home)",
      "albumId": 33
    },
    {
      "id": 69,
      "location": { "postalCode": "78-320", "name": "Bednarbury" },
      "pricePerNightInEUR": "757.00",
      "rating": 3.8,
      "capacity": 1,
      "name": "Stop! in the Name of Love",
      "albumId": 32
    },
    {
      "id": 70,
      "location": { "postalCode": "45-515", "name": "East Rossie" },
      "pricePerNightInEUR": "129.00",
      "rating": 1.9,
      "capacity": 2,
      "name": "Abracadabra",
      "albumId": 31
    },
    {
      "id": 71,
      "location": { "postalCode": "23-810", "name": "New Antwon" },
      "pricePerNightInEUR": "811.00",
      "rating": 4.1,
      "capacity": 7,
      "name": "Purple Rain",
      "albumId": 30
    },
    {
      "id": 72,
      "location": { "postalCode": "08-541", "name": "Toychester" },
      "pricePerNightInEUR": "414.00",
      "rating": 2.2,
      "capacity": 6,
      "name": "Eye of the Tiger",
      "albumId": 29
    },
    {
      "id": 73,
      "location": { "postalCode": "95-730", "name": "Stoneberg" },
      "pricePerNightInEUR": "134.00",
      "rating": 4.5,
      "capacity": 6,
      "name": "Save the Last Dance For Me",
      "albumId": 28
    },
    {
      "id": 74,
      "location": { "postalCode": "13-004", "name": "South Ralph" },
      "pricePerNightInEUR": "671.00",
      "rating": 4.6,
      "capacity": 12,
      "name": "The Great Pretender",
      "albumId": 27
    },
    {
      "id": 75,
      "location": { "postalCode": "63-430", "name": "Hudsonton" },
      "pricePerNightInEUR": "207.00",
      "rating": 1,
      "capacity": 4,
      "name": "Family Affair",
      "albumId": 26
    },
    {
      "id": 76,
      "location": { "postalCode": "69-408", "name": "Lake Melisastad" },
      "pricePerNightInEUR": "920.00",
      "rating": 3.5,
      "capacity": 8,
      "name": "How You Remind Me",
      "albumId": 25
    },
    {
      "id": 77,
      "location": { "postalCode": "25-699", "name": "South Emiestad" },
      "pricePerNightInEUR": "267.00",
      "rating": 3.5,
      "capacity": 12,
      "name": "Give Me Everything",
      "albumId": 24
    },
    {
      "id": 78,
      "location": { "postalCode": "58-477", "name": "New Laverna" },
      "pricePerNightInEUR": "830.00",
      "rating": 4.7,
      "capacity": 6,
      "name": "The Glow-Worm",
      "albumId": 23
    },
    {
      "id": 79,
      "location": { "postalCode": "71-781", "name": "Hanestad" },
      "pricePerNightInEUR": "680.00",
      "rating": 3,
      "capacity": 10,
      "name": "Wedding Bell Blues",
      "albumId": 22
    },
    {
      "id": 80,
      "location": { "postalCode": "51-638", "name": "West Hartford" },
      "pricePerNightInEUR": "645.00",
      "rating": 4.6,
      "capacity": 5,
      "name": "Promiscuous",
      "albumId": 21
    },
    {
      "id": 81,
      "location": { "postalCode": "36-967", "name": "West Rickfort" },
      "pricePerNightInEUR": "688.00",
      "rating": 4,
      "capacity": 1,
      "name": "Let's Dance",
      "albumId": 20
    },
    {
      "id": 82,
      "location": { "postalCode": "16-511", "name": "Enaburgh" },
      "pricePerNightInEUR": "257.00",
      "rating": 1.3,
      "capacity": 5,
      "name": "Check On It",
      "albumId": 19
    },
    {
      "id": 83,
      "location": { "postalCode": "13-987", "name": "Nitzscheboro" },
      "pricePerNightInEUR": "511.00",
      "rating": 5,
      "capacity": 5,
      "name": "Want Ads",
      "albumId": 18
    },
    {
      "id": 84,
      "location": { "postalCode": "66-300", "name": "South Astrid" },
      "pricePerNightInEUR": "646.00",
      "rating": 1.2,
      "capacity": 7,
      "name": "Wicked Game",
      "albumId": 17
    },
    {
      "id": 85,
      "location": { "postalCode": "20-017", "name": "Lake Luigibury" },
      "pricePerNightInEUR": "182.00",
      "rating": 1,
      "capacity": 6,
      "name": "Can't Get Enough of Your Love",
      "albumId": 16
    },
    {
      "id": 86,
      "location": { "postalCode": "56-486", "name": "Jameyton" },
      "pricePerNightInEUR": "17.00",
      "rating": 3.4,
      "capacity": 4,
      "name": "Dizzy",
      "albumId": 15
    },
    {
      "id": 87,
      "location": { "postalCode": "02-938", "name": "North Marley" },
      "pricePerNightInEUR": "718.00",
      "rating": 3.4,
      "capacity": 8,
      "name": "Lean On Me",
      "albumId": 14
    },
    {
      "id": 88,
      "location": { "postalCode": "08-773", "name": "Euclid" },
      "pricePerNightInEUR": "398.00",
      "rating": 1.1,
      "capacity": 6,
      "name": "One",
      "albumId": 13
    },
    {
      "id": 89,
      "location": { "postalCode": "72-504", "name": "North Lexusburgh" },
      "pricePerNightInEUR": "196.00",
      "rating": 1.5,
      "capacity": 5,
      "name": "Hound Dog",
      "albumId": 12
    },
    {
      "id": 90,
      "location": { "postalCode": "10-387", "name": "Country Club" },
      "pricePerNightInEUR": "987.00",
      "rating": 4.7,
      "capacity": 5,
      "name": "Truly Madly Deeply",
      "albumId": 11
    },
    {
      "id": 91,
      "location": { "postalCode": "60-074", "name": "Hertaview" },
      "pricePerNightInEUR": "822.00",
      "rating": 4.5,
      "capacity": 12,
      "name": "Stairway to Heaven",
      "albumId": 10
    },
    {
      "id": 92,
      "location": { "postalCode": "49-497", "name": "Ashaberg" },
      "pricePerNightInEUR": "38.00",
      "rating": 4.5,
      "capacity": 10,
      "name": "Sir Duke",
      "albumId": 9
    },
    {
      "id": 93,
      "location": { "postalCode": "23-763", "name": "Catalina Foothills" },
      "pricePerNightInEUR": "999.00",
      "rating": 3.3,
      "capacity": 2,
      "name": "My Life",
      "albumId": 8
    },
    {
      "id": 94,
      "location": { "postalCode": "63-495", "name": "St. Peters" },
      "pricePerNightInEUR": "727.00",
      "rating": 4.5,
      "capacity": 2,
      "name": "Rum & Coca-Cola",
      "albumId": 7
    },
    {
      "id": 95,
      "location": { "postalCode": "39-827", "name": "Palm Coast" },
      "pricePerNightInEUR": "268.00",
      "rating": 4.2,
      "capacity": 6,
      "name": "Whole Lotta Love",
      "albumId": 6
    },
    {
      "id": 96,
      "location": { "postalCode": "78-667", "name": "Cathedral City" },
      "pricePerNightInEUR": "767.00",
      "rating": 4.2,
      "capacity": 9,
      "name": "Cold",
      "albumId": 5
    },
    {
      "id": 97,
      "location": { "postalCode": "32-522", "name": "Wizaville" },
      "pricePerNightInEUR": "14.00",
      "rating": 4,
      "capacity": 3,
      "name": "I Just Called to Say I Love You",
      "albumId": 4
    },
    {
      "id": 98,
      "location": { "postalCode": "13-596", "name": "Okunevaview" },
      "pricePerNightInEUR": "459.00",
      "rating": 3.3,
      "capacity": 6,
      "name": "Rock Around the Clock",
      "albumId": 3
    },
    {
      "id": 99,
      "location": { "postalCode": "08-639", "name": "Bedford" },
      "pricePerNightInEUR": "408.00",
      "rating": 4.3,
      "capacity": 6,
      "name": "Hey Ya!",
      "albumId": 2
    },
    {
      "id": 100,
      "location": { "postalCode": "03-501", "name": "Bergestad" },
      "pricePerNightInEUR": "761.00",
      "rating": 4,
      "capacity": 8,
      "name": "Ring My Bell",
      "albumId": 1
    }
  ],
  "venuesDetails": [
    {
      "id": 3326,
      "venueId": 1,
      "location": { "postalCode": "00-915", "name": "Lake Torrancefort" },
      "pricePerNightInEUR": "696.00",
      "rating": 3.9,
      "numberOfReviews": 7566,
      "capacity": 7,
      "name": "Wayward Wind",
      "albumId": 100,
      "description": "Suffoco calculus suppono vinitor vulariter consectetur. Tristis cometes vero tersus ventosus vesica claustrum tubineus volup inventore. Verecundia aureus deporto consuasor abutor deleniti aperiam. Usque adnuo delicate fugit victoria temptatio. Solvo peccatus volubilis deporto attonbitus a defluo. Doloribus administratio tricesimus speculum. Aperte sto ascit communis.",
      "features": {
        "generalAmenities": [
          "parking",
          "24h reception",
          "karaoke",
          "speakers",
          "pool",
          "indoor music",
          "pet friendly",
          "bar",
          "WiFi",
          "restaurant",
          "garden",
          "jacuzzi",
          "playground",
          "library",
          "outdoor music",
          "fireplace",
          "fitness center"
        ],
        "roomAmenities": ["hypoallergic bedding", "kitchen facilities"],
        "neighbourhoods": [
          "mall",
          "zoo",
          "forest",
          "historical monument",
          "church",
          "amusement park",
          "old town",
          "theatre",
          "sea",
          "park",
          "museum"
        ],
        "handicapAccesibility": ["short-grown friendly", "wheelchair friendly"]
      },
      "sleepingDetails": { "maxCapacity": 7, "amountOfBeds": 5 },
      "checkInHour": "12pm",
      "checkOutHour": "10am",
      "distanceFromCityCenterInKM": 1,
      "contactDetails": {
        "phone": "797-651-2624 x6961",
        "email": "WaywardWind.LakeTorrancefort57@hotmail.com"
      }
    },
    {
      "id": 6941,
      "venueId": 2,
      "location": { "postalCode": "39-632", "name": "New Lydiaport" },
      "pricePerNightInEUR": "995.00",
      "rating": 2.4,
      "numberOfReviews": 3092,
      "capacity": 11,
      "name": "Kryptonite",
      "albumId": 99,
      "description": "Repellendus acies valens dens. Cubo sopor adhuc culpa color. Atrox coepi auditor canonicus. Thermae coepi degenero colligo agnosco stella. Atavus celo cruciamentum curso conscendo vindico.",
      "features": {
        "generalAmenities": [
          "WiFi",
          "garden",
          "fitness center",
          "parking",
          "bar",
          "24h reception",
          "karaoke",
          "outdoor music",
          "speakers",
          "library",
          "playground",
          "jacuzzi",
          "indoor music",
          "pet friendly"
        ],
        "roomAmenities": ["safe", "hypoallergic bedding"],
        "neighbourhoods": [
          "restaurant",
          "historical monument",
          "sea",
          "amusement park",
          "theatre"
        ],
        "handicapAccesibility": [
          "deaf friendly",
          "blind friendly",
          "wheelchair friendly",
          "short-grown friendly"
        ]
      },
      "sleepingDetails": { "maxCapacity": 11, "amountOfBeds": 7 },
      "checkInHour": "12pm",
      "checkOutHour": "10am",
      "distanceFromCityCenterInKM": 18,
      "contactDetails": {
        "phone": "658.289.2097 x50869",
        "email": "Kryptonite$NewLydiaport@hotmail.com"
      }
    },
    {
      "id": 10701,
      "venueId": 3,
      "location": { "postalCode": "34-937", "name": "Bradtkeborough" },
      "pricePerNightInEUR": "890.00",
      "rating": 1.5,
      "numberOfReviews": 7149,
      "capacity": 2,
      "name": "Baby Love",
      "albumId": 98,
      "description": "Catena viriliter cavus desparatus modi desparatus. Depono cuius cupio argumentum teres calculus tempore recusandae. Triumphus tersus statua carpo crustulum cena aeger velit. Ancilla delicate tertius concido corrupti cresco.",
      "features": {
        "generalAmenities": ["restaurant", "playground", "karaoke"],
        "roomAmenities": ["safe", "bathroom facilities"],
        "neighbourhoods": ["restaurant", "theatre", "amusement park", "cinema"],
        "handicapAccesibility": [
          "blind friendly",
          "deaf friendly",
          "wheelchair friendly"
        ]
      },
      "sleepingDetails": { "maxCapacity": 2, "amountOfBeds": 1 },
      "checkInHour": "12pm",
      "checkOutHour": "10am",
      "distanceFromCityCenterInKM": 27,
      "contactDetails": {
        "phone": "(453) 635-0874",
        "email": "BabyLove!Bradtkeborough17@gmail.com"
      }
    },
    {
      "id": 12563,
      "venueId": 4,
      "location": { "postalCode": "87-080", "name": "East Jo" },
      "pricePerNightInEUR": "577.00",
      "rating": 1.7,
      "numberOfReviews": 3287,
      "capacity": 3,
      "name": "I Walk the Line",
      "albumId": 97,
      "description": "Vesco quo tepesco studio sufficio synagoga creo. Depopulo cernuus debeo sumptus bibo delicate torqueo ceno. Acer ex toties solus valeo teneo. Ustilo tribuo claustrum. Officia denuncio vespillo aestus bardus spargo tergiversatio voco acceptus sortitus. Dolore ante candidus modi tergeo curatio.",
      "features": {
        "generalAmenities": [
          "speakers",
          "fireplace",
          "jacuzzi",
          "bar",
          "24h reception",
          "indoor music",
          "playground",
          "parking",
          "WiFi"
        ],
        "roomAmenities": ["kitchen facilities"],
        "neighbourhoods": [
          "forest",
          "museum",
          "old town",
          "theatre",
          "church",
          "lake",
          "amusement park",
          "park",
          "zoo",
          "sea"
        ],
        "handicapAccesibility": [
          "wheelchair friendly",
          "deaf friendly",
          "blind friendly",
          "short-grown friendly"
        ]
      },
      "sleepingDetails": { "maxCapacity": 3, "amountOfBeds": 2 },
      "checkInHour": "12pm",
      "checkOutHour": "10am",
      "distanceFromCityCenterInKM": 7,
      "contactDetails": {
        "phone": "554-723-0451 x28539",
        "email": "IWalktheLine-EastJo@gmail.com"
      }
    },
    {
      "id": 16660,
      "venueId": 5,
      "location": { "postalCode": "31-748", "name": "North Roelside" },
      "pricePerNightInEUR": "505.00",
      "rating": 1.6,
      "numberOfReviews": 4488,
      "capacity": 11,
      "name": "Want Ads",
      "albumId": 96,
      "description": "Adulatio autem tener acquiro spectaculum voluptate. Conscendo acer taedium hic compello thorax tunc. Abscido sint curvo dolore vulnus voluptas coepi cum.",
      "features": {
        "generalAmenities": [
          "jacuzzi",
          "indoor music",
          "parking",
          "WiFi",
          "speakers",
          "outdoor music",
          "fitness center",
          "bar",
          "pool",
          "24h reception",
          "restaurant",
          "karaoke",
          "fireplace",
          "playground",
          "pet friendly",
          "garden",
          "library"
        ],
        "roomAmenities": ["TV", "safe"],
        "neighbourhoods": [
          "zoo",
          "museum",
          "sea",
          "national park",
          "lake",
          "amusement park",
          "park",
          "mountains",
          "mall",
          "restaurant",
          "forest",
          "cinema"
        ],
        "handicapAccesibility": [
          "blind friendly",
          "short-grown friendly",
          "deaf friendly"
        ]
      },
      "sleepingDetails": { "maxCapacity": 11, "amountOfBeds": 8 },
      "checkInHour": "12pm",
      "checkOutHour": "10am",
      "distanceFromCityCenterInKM": 3,
      "contactDetails": {
        "phone": "1-504-607-7963 x2845",
        "email": "WantAds_NorthRoelside60@gmail.com"
      }
    },
    {
      "id": 2636,
      "venueId": 6,
      "location": { "postalCode": "13-401", "name": "North Shadstead" },
      "pricePerNightInEUR": "428.00",
      "rating": 2.5,
      "numberOfReviews": 547,
      "capacity": 7,
      "name": "More Than Words",
      "albumId": 95,
      "description": "Suppono aspernatur verecundia stillicidium libero patrocinor denuncio nesciunt. Statim arto demitto territo carus arca consectetur conservo asper esse. Usitas texo ultio quisquam aut certus antepono qui candidus.",
      "features": {
        "generalAmenities": [
          "indoor music",
          "speakers",
          "garden",
          "playground",
          "outdoor music",
          "library"
        ],
        "roomAmenities": [
          "kitchen facilities",
          "hypoallergic bedding",
          "safe",
          "bathroom facilities"
        ],
        "neighbourhoods": [
          "park",
          "museum",
          "mountains",
          "historical monument",
          "zoo",
          "national park",
          "restaurant",
          "sea",
          "theatre",
          "old town",
          "lake",
          "church",
          "amusement park",
          "cinema"
        ],
        "handicapAccesibility": ["short-grown friendly"]
      },
      "sleepingDetails": { "maxCapacity": 7, "amountOfBeds": 7 },
      "checkInHour": "12pm",
      "checkOutHour": "10am",
      "distanceFromCityCenterInKM": 3,
      "contactDetails": {
        "phone": "(902) 595-5406",
        "email": "MoreThanWords75@yahoo.com"
      }
    },
    {
      "id": 4251,
      "venueId": 7,
      "location": { "postalCode": "54-135", "name": "Abbottworth" },
      "pricePerNightInEUR": "875.00",
      "rating": 2.9,
      "numberOfReviews": 7102,
      "capacity": 5,
      "name": "Woman",
      "albumId": 94,
      "description": "Bardus cogito textilis spes bardus ipsum turbo apostolus traho crux. Beatae admoveo denuncio. Brevis comminor ipsa deinde sollers coniuratio. Vigor accendo averto terga testimonium coaegresco atrox conscendo corrumpo. Perferendis illo clarus uter vigilo sono. Civitas vulariter demulceo capio comedo minus cribro.",
      "features": {
        "generalAmenities": [
          "parking",
          "garden",
          "speakers",
          "pool",
          "restaurant",
          "library",
          "fireplace"
        ],
        "roomAmenities": [
          "kitchen facilities",
          "bathroom facilities",
          "hypoallergic bedding",
          "TV",
          "safe"
        ],
        "neighbourhoods": [
          "cinema",
          "museum",
          "mall",
          "sea",
          "lake",
          "historical monument"
        ],
        "handicapAccesibility": [
          "deaf friendly",
          "wheelchair friendly",
          "short-grown friendly"
        ]
      },
      "sleepingDetails": { "maxCapacity": 5, "amountOfBeds": 5 },
      "checkInHour": "12pm",
      "checkOutHour": "10am",
      "distanceFromCityCenterInKM": 16,
      "contactDetails": {
        "phone": "1-547-662-8620",
        "email": "Woman_Abbottworth50@hotmail.com"
      }
    },
    {
      "id": 3419,
      "venueId": 8,
      "location": { "postalCode": "81-383", "name": "North Zelma" },
      "pricePerNightInEUR": "449.00",
      "rating": 4.6,
      "numberOfReviews": 8057,
      "capacity": 7,
      "name": "Big Girls Don't Cry",
      "albumId": 93,
      "description": "Cibo decet abundans peccatus sublime textor color sequi ancilla. Adsuesco eveniet amplus curis. Vallum commodi auctus reiciendis sursum amitto sulum caterva.",
      "features": {
        "generalAmenities": [
          "fitness center",
          "jacuzzi",
          "karaoke",
          "parking",
          "indoor music",
          "library",
          "fireplace",
          "24h reception",
          "pool",
          "garden",
          "restaurant",
          "speakers"
        ],
        "roomAmenities": ["TV"],
        "neighbourhoods": [
          "church",
          "theatre",
          "museum",
          "historical monument",
          "old town",
          "amusement park",
          "sea",
          "mall",
          "forest",
          "park",
          "zoo",
          "cinema"
        ],
        "handicapAccesibility": []
      },
      "sleepingDetails": { "maxCapacity": 7, "amountOfBeds": 6 },
      "checkInHour": "12pm",
      "checkOutHour": "10am",
      "distanceFromCityCenterInKM": 16,
      "contactDetails": {
        "phone": "608-230-5508",
        "email": "BigGirlsDontCry.NorthZelma@gmail.com"
      }
    },
    {
      "id": 19566,
      "venueId": 9,
      "location": { "postalCode": "34-295", "name": "West Dejonberg" },
      "pricePerNightInEUR": "868.00",
      "rating": 2.3,
      "numberOfReviews": 8363,
      "capacity": 2,
      "name": "Candy Man",
      "albumId": 92,
      "description": "Appositus venustas assentator subseco sum balbus vesica. Claro tepesco optio clamo terreo deprimo colligo. Cibus animus ut. Enim succedo conicio terreo coniecto vix. Bonus coniuratio ager summopere baiulus ver quos atque solium. Vergo valde apostolus stultus deprimo auditor decor commodi uter. Ceno tracto cometes vulnus.",
      "features": {
        "generalAmenities": [
          "restaurant",
          "bar",
          "outdoor music",
          "WiFi",
          "pet friendly",
          "24h reception",
          "fitness center",
          "library"
        ],
        "roomAmenities": [
          "safe",
          "kitchen facilities",
          "hypoallergic bedding",
          "TV"
        ],
        "neighbourhoods": [
          "amusement park",
          "historical monument",
          "park",
          "church",
          "forest",
          "restaurant",
          "lake",
          "cinema",
          "mountains",
          "museum",
          "national park",
          "old town",
          "sea",
          "theatre",
          "mall",
          "zoo"
        ],
        "handicapAccesibility": [
          "short-grown friendly",
          "deaf friendly",
          "wheelchair friendly",
          "blind friendly"
        ]
      },
      "sleepingDetails": { "maxCapacity": 2, "amountOfBeds": 1 },
      "checkInHour": "12pm",
      "checkOutHour": "10am",
      "distanceFromCityCenterInKM": 28,
      "contactDetails": {
        "phone": "(476) 416-8630 x628",
        "email": "CandyMan_WestDejonberg@gmail.com"
      }
    },
    {
      "id": 12966,
      "venueId": 10,
      "location": { "postalCode": "73-193", "name": "Binghamton" },
      "pricePerNightInEUR": "840.00",
      "rating": 3.1,
      "numberOfReviews": 9604,
      "capacity": 5,
      "name": "Do Wah Diddy Diddy",
      "albumId": 91,
      "description": "Ter delinquo voluptatum demo. Admoveo cuius cultellus suppono totidem aqua. Cauda peccatus voco nulla amet sulum consectetur cupiditate tergeo.",
      "features": {
        "generalAmenities": [
          "fireplace",
          "karaoke",
          "pool",
          "library",
          "parking",
          "speakers",
          "playground",
          "outdoor music",
          "pet friendly",
          "garden"
        ],
        "roomAmenities": [
          "hypoallergic bedding",
          "bathroom facilities",
          "kitchen facilities"
        ],
        "neighbourhoods": [
          "cinema",
          "lake",
          "theatre",
          "historical monument",
          "old town",
          "sea",
          "restaurant",
          "zoo",
          "amusement park",
          "mountains",
          "forest",
          "museum",
          "mall",
          "national park",
          "park"
        ],
        "handicapAccesibility": ["short-grown friendly"]
      },
      "sleepingDetails": { "maxCapacity": 5, "amountOfBeds": 5 },
      "checkInHour": "12pm",
      "checkOutHour": "10am",
      "distanceFromCityCenterInKM": 13,
      "contactDetails": {
        "phone": "876.665.9917 x879",
        "email": "DoWahDiddyDiddy_Binghamton7@hotmail.com"
      }
    },
    {
      "id": 829,
      "venueId": 11,
      "location": { "postalCode": "42-808", "name": "Izaiahview" },
      "pricePerNightInEUR": "794.00",
      "rating": 4.4,
      "numberOfReviews": 7067,
      "capacity": 12,
      "name": "Have You Ever Really Loved a Woman?",
      "albumId": 90,
      "description": "Vero at defetiscor. Commodi terminatio vespillo defetiscor valeo earum. Tres vulgo exercitationem terror termes xiphias capitulus arca cattus. Assumenda ancilla depopulo quidem vitium valeo cariosus calcar communis.",
      "features": {
        "generalAmenities": [
          "restaurant",
          "WiFi",
          "jacuzzi",
          "library",
          "fireplace",
          "fitness center",
          "garden",
          "pool",
          "speakers",
          "indoor music",
          "24h reception",
          "playground",
          "bar",
          "karaoke",
          "parking"
        ],
        "roomAmenities": ["TV", "safe", "kitchen facilities"],
        "neighbourhoods": [
          "museum",
          "old town",
          "cinema",
          "historical monument",
          "sea",
          "restaurant",
          "mall",
          "church",
          "forest",
          "lake",
          "theatre",
          "national park",
          "mountains",
          "zoo",
          "amusement park"
        ],
        "handicapAccesibility": [
          "short-grown friendly",
          "wheelchair friendly",
          "blind friendly",
          "deaf friendly"
        ]
      },
      "sleepingDetails": { "maxCapacity": 12, "amountOfBeds": 6 },
      "checkInHour": "12pm",
      "checkOutHour": "10am",
      "distanceFromCityCenterInKM": 15,
      "contactDetails": {
        "phone": "203-516-6524 x324",
        "email": "HaveYouEverReallyLovedaWoman_Izaiahview30@gmail.com"
      }
    },
    {
      "id": 11534,
      "venueId": 12,
      "location": { "postalCode": "59-134", "name": "Wittingfort" },
      "pricePerNightInEUR": "677.00",
      "rating": 4.4,
      "numberOfReviews": 8837,
      "capacity": 9,
      "name": "The Morning After",
      "albumId": 89,
      "description": "Tam articulus cunae verbum ager terror ars solium vigilo uberrime. Socius sequi cognatus undique defluo totidem. Cado dolor viriliter cedo. Vorago illum depono coadunatio. Debeo totus arbitro ventosus vigor. Cognomen suggero deserunt cupiditate esse derideo. Supellex beatus deserunt beatae curto.",
      "features": {
        "generalAmenities": ["parking", "playground", "fitness center"],
        "roomAmenities": ["hypoallergic bedding", "TV", "kitchen facilities"],
        "neighbourhoods": [
          "theatre",
          "restaurant",
          "park",
          "old town",
          "lake",
          "amusement park",
          "forest",
          "zoo"
        ],
        "handicapAccesibility": [
          "deaf friendly",
          "blind friendly",
          "wheelchair friendly",
          "short-grown friendly"
        ]
      },
      "sleepingDetails": { "maxCapacity": 9, "amountOfBeds": 9 },
      "checkInHour": "12pm",
      "checkOutHour": "10am",
      "distanceFromCityCenterInKM": 22,
      "contactDetails": {
        "phone": "698.900.5028 x4210",
        "email": "TheMorningAfter.Wittingfort59@gmail.com"
      }
    },
    {
      "id": 297,
      "venueId": 13,
      "location": { "postalCode": "08-943", "name": "Yundtmouth" },
      "pricePerNightInEUR": "424.00",
      "rating": 2.4,
      "numberOfReviews": 3536,
      "capacity": 5,
      "name": "Soldier Boy",
      "albumId": 88,
      "description": "Demum solum sumo colligo thesis admoveo. Vesica decimus abscido. Subito quisquam demergo asporto cohaero adinventitias arguo constans depromo tolero. Tristis degenero demens amplitudo ad atqui aufero cariosus. Studio nostrum conor aestivus appono. Adhuc barba chirographum tergiversatio adipisci tardus caelestis tempora.",
      "features": {
        "generalAmenities": [
          "speakers",
          "library",
          "24h reception",
          "restaurant",
          "indoor music",
          "playground"
        ],
        "roomAmenities": ["hypoallergic bedding"],
        "neighbourhoods": [
          "church",
          "cinema",
          "mall",
          "mountains",
          "zoo",
          "historical monument",
          "museum",
          "forest",
          "restaurant",
          "theatre"
        ],
        "handicapAccesibility": [
          "deaf friendly",
          "wheelchair friendly",
          "short-grown friendly"
        ]
      },
      "sleepingDetails": { "maxCapacity": 5, "amountOfBeds": 4 },
      "checkInHour": "12pm",
      "checkOutHour": "10am",
      "distanceFromCityCenterInKM": 2,
      "contactDetails": {
        "phone": "(548) 266-8022 x62940",
        "email": "SoldierBoy.Yundtmouth60@yahoo.com"
      }
    },
    {
      "id": 5361,
      "venueId": 14,
      "location": { "postalCode": "70-137", "name": "South Koreystead" },
      "pricePerNightInEUR": "683.00",
      "rating": 4.7,
      "numberOfReviews": 9665,
      "capacity": 7,
      "name": "I Gotta Feeling",
      "albumId": 87,
      "description": "Tunc incidunt taceo tumultus surculus studio. Curatio tantum stipes abundans creptio voco neque vere. Pauper cupressus defetiscor deleniti tempora validus dedecor summisse viridis utor. Verto curto provident thema tempora. Attero solvo cupressus cetera sit minima.",
      "features": {
        "generalAmenities": [
          "speakers",
          "garden",
          "pool",
          "24h reception",
          "parking",
          "library",
          "restaurant",
          "playground",
          "karaoke",
          "outdoor music"
        ],
        "roomAmenities": [
          "safe",
          "hypoallergic bedding",
          "bathroom facilities",
          "TV",
          "kitchen facilities"
        ],
        "neighbourhoods": [
          "museum",
          "mountains",
          "lake",
          "church",
          "park",
          "amusement park",
          "old town",
          "national park",
          "zoo"
        ],
        "handicapAccesibility": [
          "short-grown friendly",
          "deaf friendly",
          "blind friendly",
          "wheelchair friendly"
        ]
      },
      "sleepingDetails": { "maxCapacity": 7, "amountOfBeds": 5 },
      "checkInHour": "12pm",
      "checkOutHour": "10am",
      "distanceFromCityCenterInKM": 7,
      "contactDetails": {
        "phone": "(474) 378-2475 x8391",
        "email": "IGottaFeeling.SouthKoreystead@gmail.com"
      }
    },
    {
      "id": 998,
      "venueId": 15,
      "location": { "postalCode": "11-397", "name": "Naderbury" },
      "pricePerNightInEUR": "161.00",
      "rating": 2.4,
      "numberOfReviews": 5625,
      "capacity": 1,
      "name": "Gypsies",
      "albumId": 86,
      "description": "Modi currus adsuesco stips cubicularis ipsa. Quaerat deleniti sursum asperiores quas decor xiphias. Arx alioqui crebro tum pax conscendo comes tabesco maiores temeritas. Succurro coadunatio suus adeo cultellus. Speciosus infit villa vinum ustulo creator in baiulus vere.",
      "features": {
        "generalAmenities": [
          "jacuzzi",
          "garden",
          "24h reception",
          "parking",
          "bar",
          "pet friendly",
          "indoor music",
          "fireplace",
          "WiFi",
          "outdoor music",
          "pool",
          "fitness center",
          "playground",
          "restaurant",
          "library",
          "karaoke"
        ],
        "roomAmenities": [
          "TV",
          "hypoallergic bedding",
          "safe",
          "bathroom facilities"
        ],
        "neighbourhoods": [
          "zoo",
          "theatre",
          "amusement park",
          "cinema",
          "church",
          "national park"
        ],
        "handicapAccesibility": ["wheelchair friendly"]
      },
      "sleepingDetails": { "maxCapacity": 1, "amountOfBeds": 1 },
      "checkInHour": "12pm",
      "checkOutHour": "10am",
      "distanceFromCityCenterInKM": 30,
      "contactDetails": {
        "phone": "497.471.6549 x50257",
        "email": "Gypsies99@yahoo.com"
      }
    },
    {
      "id": 7411,
      "venueId": 16,
      "location": { "postalCode": "64-043", "name": "Kiehnville" },
      "pricePerNightInEUR": "198.00",
      "rating": 2.8,
      "numberOfReviews": 1485,
      "capacity": 9,
      "name": "Red Red Wine",
      "albumId": 85,
      "description": "Cimentarius at sub apud cum. Conforto utroque conscendo quibusdam verbera minima.",
      "features": {
        "generalAmenities": [
          "playground",
          "pool",
          "24h reception",
          "pet friendly",
          "fitness center",
          "garden",
          "indoor music",
          "bar",
          "outdoor music",
          "karaoke",
          "restaurant",
          "WiFi",
          "fireplace",
          "parking",
          "speakers",
          "library"
        ],
        "roomAmenities": ["bathroom facilities", "hypoallergic bedding", "TV"],
        "neighbourhoods": [
          "museum",
          "mall",
          "theatre",
          "lake",
          "national park",
          "forest",
          "amusement park",
          "mountains",
          "historical monument",
          "restaurant",
          "church",
          "zoo",
          "cinema",
          "sea",
          "park"
        ],
        "handicapAccesibility": [
          "blind friendly",
          "short-grown friendly",
          "wheelchair friendly"
        ]
      },
      "sleepingDetails": { "maxCapacity": 9, "amountOfBeds": 9 },
      "checkInHour": "12pm",
      "checkOutHour": "10am",
      "distanceFromCityCenterInKM": 11,
      "contactDetails": {
        "phone": "1-985-614-5429 x92073",
        "email": "RedRedWine49@yahoo.com"
      }
    },
    {
      "id": 5126,
      "venueId": 17,
      "location": { "postalCode": "72-050", "name": "South Brandon" },
      "pricePerNightInEUR": "116.00",
      "rating": 3,
      "numberOfReviews": 6693,
      "capacity": 8,
      "name": "Mr Tambourine Man",
      "albumId": 84,
      "description": "Blandior vobis tyrannus coruscus coadunatio tam vel thorax. Vix aetas ciminatio taedium facilis casus cras. Cohibeo acervus auctus vespillo civis vinculum umquam xiphias truculenter comedo. Vaco appositus curo tamen vestigium appositus substantia cupressus demonstro occaecati.",
      "features": {
        "generalAmenities": [
          "speakers",
          "indoor music",
          "parking",
          "pet friendly",
          "fireplace",
          "outdoor music",
          "24h reception",
          "pool",
          "playground",
          "restaurant",
          "jacuzzi",
          "bar",
          "garden"
        ],
        "roomAmenities": [
          "hypoallergic bedding",
          "bathroom facilities",
          "kitchen facilities",
          "safe"
        ],
        "neighbourhoods": [
          "old town",
          "theatre",
          "zoo",
          "lake",
          "forest",
          "park",
          "restaurant",
          "church",
          "mall",
          "national park",
          "museum",
          "mountains"
        ],
        "handicapAccesibility": ["deaf friendly", "wheelchair friendly"]
      },
      "sleepingDetails": { "maxCapacity": 8, "amountOfBeds": 4 },
      "checkInHour": "12pm",
      "checkOutHour": "10am",
      "distanceFromCityCenterInKM": 8,
      "contactDetails": {
        "phone": "1-343-262-1847 x18078",
        "email": "MrTambourineMan!SouthBrandon@hotmail.com"
      }
    },
    {
      "id": 13642,
      "venueId": 18,
      "location": { "postalCode": "13-766", "name": "Lake Zander" },
      "pricePerNightInEUR": "804.00",
      "rating": 1.8,
      "numberOfReviews": 5040,
      "capacity": 11,
      "name": "You Were Meant for Me",
      "albumId": 83,
      "description": "Paens valetudo at audeo odit. Coruscus ab acies dolorum sulum accusator aliquid. Advoco depulso alius decor capto cattus maxime autus. Aggredior vicissitudo tenetur adfero bardus.",
      "features": {
        "generalAmenities": [
          "karaoke",
          "indoor music",
          "parking",
          "pool",
          "jacuzzi",
          "outdoor music",
          "speakers",
          "library",
          "playground",
          "24h reception",
          "garden",
          "restaurant",
          "pet friendly",
          "fireplace",
          "fitness center"
        ],
        "roomAmenities": [
          "kitchen facilities",
          "safe",
          "hypoallergic bedding",
          "bathroom facilities",
          "TV"
        ],
        "neighbourhoods": [
          "amusement park",
          "museum",
          "mountains",
          "historical monument",
          "church",
          "cinema",
          "restaurant",
          "theatre",
          "old town",
          "national park",
          "lake",
          "sea"
        ],
        "handicapAccesibility": [
          "blind friendly",
          "deaf friendly",
          "wheelchair friendly",
          "short-grown friendly"
        ]
      },
      "sleepingDetails": { "maxCapacity": 11, "amountOfBeds": 8 },
      "checkInHour": "12pm",
      "checkOutHour": "10am",
      "distanceFromCityCenterInKM": 5,
      "contactDetails": {
        "phone": "860-874-8444",
        "email": "YouWereMeantforMe70@yahoo.com"
      }
    },
    {
      "id": 14185,
      "venueId": 19,
      "location": { "postalCode": "99-922", "name": "Jacobihaven" },
      "pricePerNightInEUR": "580.00",
      "rating": 2.1,
      "numberOfReviews": 7319,
      "capacity": 4,
      "name": "Don't You (Forget About Me)",
      "albumId": 82,
      "description": "Velociter nulla crux quo facere ciminatio curia quo. Umerus testimonium accendo optio. Subito attero conforto ambulo stella depromo aptus velociter. Decens assentator blanditiis commemoro. Consuasor vicinus abbas excepturi copia voro. Earum uter sophismata claudeo.",
      "features": {
        "generalAmenities": [
          "jacuzzi",
          "WiFi",
          "pet friendly",
          "speakers",
          "library",
          "parking",
          "indoor music"
        ],
        "roomAmenities": [
          "bathroom facilities",
          "hypoallergic bedding",
          "kitchen facilities"
        ],
        "neighbourhoods": [
          "zoo",
          "cinema",
          "mall",
          "forest",
          "sea",
          "restaurant",
          "national park",
          "old town",
          "mountains",
          "lake",
          "amusement park",
          "museum",
          "theatre"
        ],
        "handicapAccesibility": [
          "wheelchair friendly",
          "short-grown friendly",
          "blind friendly"
        ]
      },
      "sleepingDetails": { "maxCapacity": 4, "amountOfBeds": 4 },
      "checkInHour": "12pm",
      "checkOutHour": "10am",
      "distanceFromCityCenterInKM": 22,
      "contactDetails": {
        "phone": "228.962.1817",
        "email": "DontYouForgetAboutMe58@gmail.com"
      }
    },
    {
      "id": 7025,
      "venueId": 20,
      "location": { "postalCode": "44-447", "name": "West Barrett" },
      "pricePerNightInEUR": "864.00",
      "rating": 3.9,
      "numberOfReviews": 5975,
      "capacity": 7,
      "name": "You Send Me",
      "albumId": 81,
      "description": "Aperte conqueror quo appono. Uter conitor tener vapulus culpa. Amplexus numquam defluo claro video possimus. Voluptatibus summa aestus vivo tripudio.",
      "features": {
        "generalAmenities": [
          "bar",
          "pool",
          "pet friendly",
          "jacuzzi",
          "indoor music",
          "speakers",
          "karaoke",
          "restaurant",
          "playground",
          "parking",
          "fireplace",
          "outdoor music"
        ],
        "roomAmenities": ["kitchen facilities", "hypoallergic bedding", "TV"],
        "neighbourhoods": [
          "amusement park",
          "old town",
          "lake",
          "national park",
          "sea"
        ],
        "handicapAccesibility": []
      },
      "sleepingDetails": { "maxCapacity": 7, "amountOfBeds": 5 },
      "checkInHour": "12pm",
      "checkOutHour": "10am",
      "distanceFromCityCenterInKM": 29,
      "contactDetails": {
        "phone": "1-701-744-6671 x191",
        "email": "YouSendMe74@gmail.com"
      }
    },
    {
      "id": 10420,
      "venueId": 21,
      "location": { "postalCode": "51-438", "name": "Janesville" },
      "pricePerNightInEUR": "30.00",
      "rating": 2.2,
      "numberOfReviews": 9651,
      "capacity": 8,
      "name": "Stronger",
      "albumId": 80,
      "description": "Rem in triduana curo deleo suasoria cum. Statim vitae vester. Ipsum vehemens coerceo aveho ullam congregatio delicate vitae arguo. Cariosus terra appositus ullam voluptas viridis delibero votum abscido adsuesco. Admitto baiulus textus vesper volup damno valde ulterius concedo arbitro.",
      "features": {
        "generalAmenities": [
          "playground",
          "WiFi",
          "pet friendly",
          "24h reception",
          "karaoke"
        ],
        "roomAmenities": ["bathroom facilities"],
        "neighbourhoods": [
          "sea",
          "park",
          "museum",
          "old town",
          "forest",
          "mountains",
          "theatre",
          "historical monument",
          "lake",
          "cinema",
          "church",
          "restaurant"
        ],
        "handicapAccesibility": []
      },
      "sleepingDetails": { "maxCapacity": 8, "amountOfBeds": 8 },
      "checkInHour": "12pm",
      "checkOutHour": "10am",
      "distanceFromCityCenterInKM": 16,
      "contactDetails": {
        "phone": "(951) 897-1504",
        "email": "Stronger_Janesville@yahoo.com"
      }
    },
    {
      "id": 8228,
      "venueId": 22,
      "location": { "postalCode": "03-777", "name": "Kentwood" },
      "pricePerNightInEUR": "283.00",
      "rating": 3.6,
      "numberOfReviews": 5813,
      "capacity": 11,
      "name": "Open Arms",
      "albumId": 79,
      "description": "Vix volva cubitum perspiciatis modi reprehenderit carcer subiungo. Voluptatibus tendo solio minima adflicto conicio spes demulceo commodi thesaurus. Repellat truculenter casus tener ulciscor officiis dicta. Accusantium ullus crudelis asporto repellat terga delicate depono tabgo esse. Facere accendo virga mollitia. Alioqui curo pax vulgus recusandae odio charisma cubitum comburo ea.",
      "features": {
        "generalAmenities": [
          "karaoke",
          "playground",
          "outdoor music",
          "fitness center",
          "pet friendly",
          "garden",
          "bar"
        ],
        "roomAmenities": [
          "bathroom facilities",
          "hypoallergic bedding",
          "kitchen facilities",
          "safe"
        ],
        "neighbourhoods": [
          "church",
          "theatre",
          "sea",
          "historical monument",
          "museum",
          "forest",
          "zoo",
          "lake",
          "restaurant",
          "old town",
          "amusement park"
        ],
        "handicapAccesibility": [
          "wheelchair friendly",
          "blind friendly",
          "short-grown friendly",
          "deaf friendly"
        ]
      },
      "sleepingDetails": { "maxCapacity": 11, "amountOfBeds": 6 },
      "checkInHour": "12pm",
      "checkOutHour": "10am",
      "distanceFromCityCenterInKM": 16,
      "contactDetails": {
        "phone": "(526) 975-1690 x545",
        "email": "OpenArms22@hotmail.com"
      }
    },
    {
      "id": 13694,
      "venueId": 23,
      "location": { "postalCode": "06-486", "name": "Waelchiville" },
      "pricePerNightInEUR": "362.00",
      "rating": 1.5,
      "numberOfReviews": 5955,
      "capacity": 4,
      "name": "I Will Always Love You",
      "albumId": 78,
      "description": "Comis conqueror arbitro tero. Arbustum velit vilicus comptus atrox crudelis. Viscus ultra deficio at appositus. Aestas veritatis curiositas consectetur animadverto demulceo deprecator. Demo coruscus stabilis amplitudo utrum defaeco succurro possimus. Alioqui ter dapifer. Sperno vilitas aliquam aeger tracto.",
      "features": {
        "generalAmenities": [
          "pet friendly",
          "karaoke",
          "24h reception",
          "jacuzzi",
          "playground",
          "outdoor music",
          "pool",
          "bar",
          "fireplace",
          "restaurant",
          "speakers",
          "fitness center",
          "library"
        ],
        "roomAmenities": [
          "safe",
          "TV",
          "hypoallergic bedding",
          "kitchen facilities",
          "bathroom facilities"
        ],
        "neighbourhoods": [
          "old town",
          "museum",
          "sea",
          "restaurant",
          "mountains",
          "church",
          "forest",
          "lake",
          "theatre",
          "amusement park",
          "zoo",
          "cinema",
          "historical monument"
        ],
        "handicapAccesibility": ["wheelchair friendly", "deaf friendly"]
      },
      "sleepingDetails": { "maxCapacity": 4, "amountOfBeds": 3 },
      "checkInHour": "12pm",
      "checkOutHour": "10am",
      "distanceFromCityCenterInKM": 4,
      "contactDetails": {
        "phone": "1-292-722-2151 x8214",
        "email": "IWillAlwaysLoveYou.Waelchiville@hotmail.com"
      }
    },
    {
      "id": 11316,
      "venueId": 24,
      "location": { "postalCode": "95-028", "name": "East Tressie" },
      "pricePerNightInEUR": "464.00",
      "rating": 2.3,
      "numberOfReviews": 5180,
      "capacity": 12,
      "name": "Moonlight Cocktail",
      "albumId": 77,
      "description": "Libero admitto constans. Tergo theatrum dolorum carpo. Comptus carmen synagoga sequi cavus aedificium caries avarus atque ex. Suppellex stella derideo vorax aggredior adamo delibero aranea harum decumbo. Complectus apostolus crinis coepi. Caelestis recusandae bestia thorax aliquam. Patria speculum aeneus modi.",
      "features": {
        "generalAmenities": ["garden", "speakers", "playground", "pool"],
        "roomAmenities": ["hypoallergic bedding", "TV", "bathroom facilities"],
        "neighbourhoods": ["cinema", "forest", "mountains"],
        "handicapAccesibility": [
          "wheelchair friendly",
          "deaf friendly",
          "blind friendly"
        ]
      },
      "sleepingDetails": { "maxCapacity": 12, "amountOfBeds": 8 },
      "checkInHour": "12pm",
      "checkOutHour": "10am",
      "distanceFromCityCenterInKM": 5,
      "contactDetails": {
        "phone": "534-211-6698 x6522",
        "email": "MoonlightCocktail_EastTressie31@hotmail.com"
      }
    },
    {
      "id": 6387,
      "venueId": 25,
      "location": { "postalCode": "14-807", "name": "North Trey" },
      "pricePerNightInEUR": "382.00",
      "rating": 2.7,
      "numberOfReviews": 8197,
      "capacity": 2,
      "name": "Let's Hear it For the Boy",
      "albumId": 76,
      "description": "Tumultus eligendi cognomen ait. Cotidie talis labore bene quaerat thermae thesaurus teres beatae. Tergeo laborum denique non. Deprimo quos sapiente.",
      "features": {
        "generalAmenities": [
          "bar",
          "24h reception",
          "pool",
          "parking",
          "restaurant",
          "fireplace",
          "library"
        ],
        "roomAmenities": ["bathroom facilities", "kitchen facilities", "TV"],
        "neighbourhoods": [
          "amusement park",
          "historical monument",
          "national park",
          "forest",
          "park",
          "sea",
          "old town",
          "church",
          "theatre",
          "mall",
          "cinema"
        ],
        "handicapAccesibility": ["deaf friendly", "short-grown friendly"]
      },
      "sleepingDetails": { "maxCapacity": 2, "amountOfBeds": 2 },
      "checkInHour": "12pm",
      "checkOutHour": "10am",
      "distanceFromCityCenterInKM": 24,
      "contactDetails": {
        "phone": "(916) 646-7051 x350",
        "email": "LetsHearitFortheBoy_NorthTrey7@yahoo.com"
      }
    },
    {
      "id": 7213,
      "venueId": 26,
      "location": { "postalCode": "30-984", "name": "Jastfield" },
      "pricePerNightInEUR": "221.00",
      "rating": 2.7,
      "numberOfReviews": 1511,
      "capacity": 7,
      "name": "Shake You Down",
      "albumId": 75,
      "description": "Sufficio conicio amissio. Voluptate ad charisma peior. Verbum apto qui turba sed.",
      "features": {
        "generalAmenities": [
          "fitness center",
          "pool",
          "playground",
          "pet friendly",
          "indoor music",
          "restaurant",
          "fireplace"
        ],
        "roomAmenities": ["TV", "safe"],
        "neighbourhoods": ["amusement park", "historical monument", "forest"],
        "handicapAccesibility": [
          "deaf friendly",
          "blind friendly",
          "short-grown friendly"
        ]
      },
      "sleepingDetails": { "maxCapacity": 7, "amountOfBeds": 7 },
      "checkInHour": "12pm",
      "checkOutHour": "10am",
      "distanceFromCityCenterInKM": 5,
      "contactDetails": {
        "phone": "430-499-6783 x844",
        "email": "ShakeYouDown.Jastfield@hotmail.com"
      }
    },
    {
      "id": 1774,
      "venueId": 27,
      "location": { "postalCode": "02-979", "name": "New Walton" },
      "pricePerNightInEUR": "208.00",
      "rating": 4.3,
      "numberOfReviews": 4735,
      "capacity": 12,
      "name": "Tears in Heaven",
      "albumId": 74,
      "description": "Pecto adsidue surculus tenus. Inflammatio sodalitas vita votum. Articulus tredecim testimonium cernuus arbor cui denego acidus deserunt repellat. Vespillo solvo defessus.",
      "features": {
        "generalAmenities": [
          "outdoor music",
          "fitness center",
          "speakers",
          "indoor music",
          "24h reception",
          "bar"
        ],
        "roomAmenities": [
          "hypoallergic bedding",
          "kitchen facilities",
          "bathroom facilities",
          "safe"
        ],
        "neighbourhoods": [
          "museum",
          "zoo",
          "historical monument",
          "park",
          "cinema",
          "mall",
          "sea",
          "restaurant",
          "theatre",
          "mountains",
          "national park",
          "amusement park"
        ],
        "handicapAccesibility": []
      },
      "sleepingDetails": { "maxCapacity": 12, "amountOfBeds": 9 },
      "checkInHour": "12pm",
      "checkOutHour": "10am",
      "distanceFromCityCenterInKM": 18,
      "contactDetails": {
        "phone": "(993) 937-2340 x36347",
        "email": "TearsinHeaven_NewWalton@yahoo.com"
      }
    },
    {
      "id": 10974,
      "venueId": 28,
      "location": { "postalCode": "75-838", "name": "Frankside" },
      "pricePerNightInEUR": "720.00",
      "rating": 4.7,
      "numberOfReviews": 535,
      "capacity": 11,
      "name": "Kiss On My List",
      "albumId": 73,
      "description": "Desidero corporis qui earum aperiam aureus. Paens tum assumenda advenio supra timor.",
      "features": {
        "generalAmenities": [
          "karaoke",
          "pool",
          "jacuzzi",
          "indoor music",
          "fitness center",
          "garden",
          "playground",
          "bar",
          "parking"
        ],
        "roomAmenities": ["safe", "hypoallergic bedding", "TV"],
        "neighbourhoods": [
          "park",
          "restaurant",
          "historical monument",
          "cinema",
          "mountains",
          "lake",
          "zoo",
          "forest",
          "sea"
        ],
        "handicapAccesibility": [
          "blind friendly",
          "short-grown friendly",
          "deaf friendly",
          "wheelchair friendly"
        ]
      },
      "sleepingDetails": { "maxCapacity": 11, "amountOfBeds": 6 },
      "checkInHour": "12pm",
      "checkOutHour": "10am",
      "distanceFromCityCenterInKM": 26,
      "contactDetails": {
        "phone": "1-799-612-6835 x5131",
        "email": "KissOnMyList=Frankside@yahoo.com"
      }
    },
    {
      "id": 3592,
      "venueId": 29,
      "location": { "postalCode": "51-179", "name": "St. Peters" },
      "pricePerNightInEUR": "978.00",
      "rating": 5,
      "numberOfReviews": 717,
      "capacity": 12,
      "name": "Harper Valley PTA",
      "albumId": 72,
      "description": "Aliquam casus voluntarius textor templum. Cruentus absconditus totam pectus pecus fugiat. Vox debitis tamisium suscipit vulnero ullus ara admiratio.",
      "features": {
        "generalAmenities": ["playground", "garden", "indoor music"],
        "roomAmenities": ["bathroom facilities", "TV", "hypoallergic bedding"],
        "neighbourhoods": [
          "park",
          "mall",
          "zoo",
          "theatre",
          "church",
          "forest",
          "amusement park",
          "old town",
          "historical monument"
        ],
        "handicapAccesibility": []
      },
      "sleepingDetails": { "maxCapacity": 12, "amountOfBeds": 8 },
      "checkInHour": "12pm",
      "checkOutHour": "10am",
      "distanceFromCityCenterInKM": 19,
      "contactDetails": {
        "phone": "(330) 872-7737 x33055",
        "email": "HarperValleyPTA_St.Peters63@hotmail.com"
      }
    },
    {
      "id": 13327,
      "venueId": 30,
      "location": { "postalCode": "24-046", "name": "Fort Stephonshire" },
      "pricePerNightInEUR": "435.00",
      "rating": 2.7,
      "numberOfReviews": 9919,
      "capacity": 10,
      "name": "Indian Reservation (The Lament Of The Cherokee Reservation Indian)",
      "albumId": 71,
      "description": "Vir vis tres usus. Admitto vita certus bibo. Atqui careo conspergo absconditus vulticulus casus expedita.",
      "features": {
        "generalAmenities": [
          "playground",
          "fireplace",
          "fitness center",
          "indoor music",
          "parking",
          "pool",
          "garden",
          "speakers",
          "pet friendly"
        ],
        "roomAmenities": ["TV"],
        "neighbourhoods": ["historical monument", "church", "museum"],
        "handicapAccesibility": []
      },
      "sleepingDetails": { "maxCapacity": 10, "amountOfBeds": 8 },
      "checkInHour": "12pm",
      "checkOutHour": "10am",
      "distanceFromCityCenterInKM": 1,
      "contactDetails": {
        "phone": "(707) 834-3687",
        "email": "IndianReservationTheLamentOfTheCherokeeReservation@gmail.com"
      }
    },
    {
      "id": 2181,
      "venueId": 31,
      "location": { "postalCode": "50-991", "name": "North Jadonside" },
      "pricePerNightInEUR": "721.00",
      "rating": 4.7,
      "numberOfReviews": 9215,
      "capacity": 9,
      "name": "I'm Walking Behind You",
      "albumId": 70,
      "description": "Soleo vix statua tristis. Vulpes taceo confugo valetudo damnatio usitas barba. Vix esse terra delinquo doloribus clamo eos. Torqueo ambitus aggero consectetur cernuus officiis blanditiis deleo. Eaque aer combibo. Carcer decumbo comitatus tardus.",
      "features": {
        "generalAmenities": [
          "parking",
          "jacuzzi",
          "bar",
          "outdoor music",
          "fireplace",
          "fitness center",
          "indoor music"
        ],
        "roomAmenities": ["hypoallergic bedding", "safe", "kitchen facilities"],
        "neighbourhoods": [
          "theatre",
          "church",
          "mountains",
          "zoo",
          "park",
          "historical monument",
          "museum",
          "amusement park",
          "national park",
          "forest",
          "sea",
          "cinema",
          "lake",
          "old town",
          "restaurant"
        ],
        "handicapAccesibility": ["short-grown friendly"]
      },
      "sleepingDetails": { "maxCapacity": 9, "amountOfBeds": 7 },
      "checkInHour": "12pm",
      "checkOutHour": "10am",
      "distanceFromCityCenterInKM": 7,
      "contactDetails": {
        "phone": "1-915-207-0445",
        "email": "ImWalkingBehindYou~NorthJadonside@yahoo.com"
      }
    },
    {
      "id": 11183,
      "venueId": 32,
      "location": { "postalCode": "48-482", "name": "Franciscofort" },
      "pricePerNightInEUR": "914.00",
      "rating": 3.5,
      "numberOfReviews": 2409,
      "capacity": 4,
      "name": "Do You Love Me?",
      "albumId": 69,
      "description": "Colo nobis porro. Ancilla arbitro defessus aggredior deinde ascisco tergeo voluntarius. Cui solum colo tabesco. Brevis cicuta vitium cui comminor animi via apto decens nostrum.",
      "features": {
        "generalAmenities": [
          "indoor music",
          "bar",
          "karaoke",
          "parking",
          "speakers",
          "jacuzzi",
          "fitness center",
          "pool",
          "pet friendly",
          "restaurant",
          "playground",
          "garden",
          "library",
          "fireplace",
          "outdoor music",
          "24h reception"
        ],
        "roomAmenities": ["kitchen facilities", "hypoallergic bedding"],
        "neighbourhoods": [
          "church",
          "restaurant",
          "museum",
          "mall",
          "lake",
          "old town",
          "sea",
          "forest",
          "historical monument"
        ],
        "handicapAccesibility": [
          "short-grown friendly",
          "deaf friendly",
          "blind friendly",
          "wheelchair friendly"
        ]
      },
      "sleepingDetails": { "maxCapacity": 4, "amountOfBeds": 3 },
      "checkInHour": "12pm",
      "checkOutHour": "10am",
      "distanceFromCityCenterInKM": 16,
      "contactDetails": {
        "phone": "274-851-2849 x8204",
        "email": "DoYouLoveMe.Franciscofort@hotmail.com"
      }
    },
    {
      "id": 13413,
      "venueId": 33,
      "location": { "postalCode": "76-577", "name": "Nicolasberg" },
      "pricePerNightInEUR": "603.00",
      "rating": 2.2,
      "numberOfReviews": 6861,
      "capacity": 8,
      "name": "Whoomp! (There it Is)",
      "albumId": 68,
      "description": "Cultellus volutabrum amet. Cura cras thymbra creo molestiae auxilium aequus. Validus animi capto admoneo terreo calamitas vulgivagus. Rerum derideo accommodo trepide. Creta voro adipiscor antiquus tepesco vinum amoveo verus ubi.",
      "features": {
        "generalAmenities": [
          "24h reception",
          "library",
          "bar",
          "restaurant",
          "WiFi",
          "jacuzzi",
          "garden",
          "pool",
          "fireplace"
        ],
        "roomAmenities": [
          "TV",
          "safe",
          "bathroom facilities",
          "hypoallergic bedding",
          "kitchen facilities"
        ],
        "neighbourhoods": [
          "theatre",
          "sea",
          "mountains",
          "mall",
          "church",
          "zoo"
        ],
        "handicapAccesibility": ["deaf friendly"]
      },
      "sleepingDetails": { "maxCapacity": 8, "amountOfBeds": 6 },
      "checkInHour": "12pm",
      "checkOutHour": "10am",
      "distanceFromCityCenterInKM": 19,
      "contactDetails": {
        "phone": "477-900-7042 x3832",
        "email": "WhoompThereitIs87@hotmail.com"
      }
    },
    {
      "id": 993,
      "venueId": 34,
      "location": { "postalCode": "29-581", "name": "Keelyville" },
      "pricePerNightInEUR": "873.00",
      "rating": 2.2,
      "numberOfReviews": 5624,
      "capacity": 5,
      "name": "That's the Way (I Like It)",
      "albumId": 67,
      "description": "Ventosus tabernus unde cohors sonitus. Summopere tricesimus collum patruus dolores video vis. Tametsi dignissimos thorax. Vita claro angustus deleo cauda agnitio acidus voro pectus corrupti. Patrocinor dapifer aperio decretum bellum. Sublime thorax avaritia comitatus vigor vitium terreo.",
      "features": {
        "generalAmenities": [
          "fitness center",
          "speakers",
          "fireplace",
          "bar",
          "jacuzzi",
          "parking",
          "outdoor music",
          "pet friendly",
          "pool",
          "indoor music",
          "24h reception",
          "WiFi",
          "restaurant",
          "playground"
        ],
        "roomAmenities": ["TV"],
        "neighbourhoods": [
          "restaurant",
          "national park",
          "church",
          "museum",
          "amusement park",
          "park",
          "theatre",
          "forest"
        ],
        "handicapAccesibility": ["blind friendly"]
      },
      "sleepingDetails": { "maxCapacity": 5, "amountOfBeds": 3 },
      "checkInHour": "12pm",
      "checkOutHour": "10am",
      "distanceFromCityCenterInKM": 7,
      "contactDetails": {
        "phone": "(509) 493-3021",
        "email": "ThatstheWayILikeIt37@gmail.com"
      }
    },
    {
      "id": 17012,
      "venueId": 35,
      "location": { "postalCode": "86-571", "name": "New Arielland" },
      "pricePerNightInEUR": "162.00",
      "rating": 2.3,
      "numberOfReviews": 6229,
      "capacity": 11,
      "name": "There goes my baby",
      "albumId": 66,
      "description": "Aperio clarus truculenter perspiciatis umerus adulescens. Somniculosus cavus tamen carus adsidue adiuvo abbas undique iure. Tricesimus fugiat altus molestiae. Tondeo amaritudo delego delego. Iste nobis statua animadverto vobis suppellex vos tardus aspernatur. Combibo commodo benigne solus. Theatrum corpus ambitus tenax cometes deporto summisse magnam.",
      "features": {
        "generalAmenities": [
          "parking",
          "indoor music",
          "fitness center",
          "pool",
          "playground"
        ],
        "roomAmenities": ["bathroom facilities"],
        "neighbourhoods": [
          "lake",
          "theatre",
          "mountains",
          "mall",
          "restaurant",
          "museum",
          "zoo",
          "cinema",
          "amusement park",
          "historical monument",
          "forest",
          "old town",
          "church",
          "park",
          "sea",
          "national park"
        ],
        "handicapAccesibility": ["deaf friendly", "wheelchair friendly"]
      },
      "sleepingDetails": { "maxCapacity": 11, "amountOfBeds": 9 },
      "checkInHour": "12pm",
      "checkOutHour": "10am",
      "distanceFromCityCenterInKM": 25,
      "contactDetails": {
        "phone": "(310) 359-3621 x9509",
        "email": "Theregoesmybaby58@yahoo.com"
      }
    },
    {
      "id": 7473,
      "venueId": 36,
      "location": { "postalCode": "56-371", "name": "Joshborough" },
      "pricePerNightInEUR": "950.00",
      "rating": 4.5,
      "numberOfReviews": 1505,
      "capacity": 2,
      "name": "As Time Goes By",
      "albumId": 65,
      "description": "Vox defessus dolore. Tolero calculus carbo bis. Quaerat officiis dignissimos magnam universe antepono. Verus sufficio contabesco.",
      "features": {
        "generalAmenities": [
          "fitness center",
          "pet friendly",
          "pool",
          "outdoor music",
          "bar"
        ],
        "roomAmenities": ["hypoallergic bedding"],
        "neighbourhoods": [
          "mall",
          "amusement park",
          "restaurant",
          "historical monument",
          "cinema",
          "theatre",
          "forest",
          "national park"
        ],
        "handicapAccesibility": ["deaf friendly"]
      },
      "sleepingDetails": { "maxCapacity": 2, "amountOfBeds": 1 },
      "checkInHour": "12pm",
      "checkOutHour": "10am",
      "distanceFromCityCenterInKM": 9,
      "contactDetails": {
        "phone": "776.886.4722 x055",
        "email": "AsTimeGoesBy.Joshborough@yahoo.com"
      }
    },
    {
      "id": 5037,
      "venueId": 37,
      "location": { "postalCode": "35-329", "name": "South Louisaberg" },
      "pricePerNightInEUR": "203.00",
      "rating": 4.7,
      "numberOfReviews": 7618,
      "capacity": 6,
      "name": "Don't Worry Be Happy",
      "albumId": 64,
      "description": "Super defaeco earum. Vilitas laboriosam basium cado theca verbum. Curriculum thymbra decerno ipsam volubilis abeo. Consequatur statim demo audio asperiores caute. Aequus creptio adulatio cerno. Ad argumentum viduo urbanus vilicus somniculosus.",
      "features": {
        "generalAmenities": ["restaurant", "pool", "speakers", "outdoor music"],
        "roomAmenities": ["hypoallergic bedding"],
        "neighbourhoods": ["mountains", "church", "forest", "museum"],
        "handicapAccesibility": [
          "short-grown friendly",
          "blind friendly",
          "wheelchair friendly"
        ]
      },
      "sleepingDetails": { "maxCapacity": 6, "amountOfBeds": 4 },
      "checkInHour": "12pm",
      "checkOutHour": "10am",
      "distanceFromCityCenterInKM": 7,
      "contactDetails": {
        "phone": "963.616.0076 x573",
        "email": "DontWorryBeHappy_SouthLouisaberg@gmail.com"
      }
    },
    {
      "id": 15175,
      "venueId": 38,
      "location": { "postalCode": "95-803", "name": "Harrisburg" },
      "pricePerNightInEUR": "69.00",
      "rating": 1.8,
      "numberOfReviews": 5597,
      "capacity": 2,
      "name": "The Christmas Song (Chestnuts Roasting On An Open Fire)",
      "albumId": 63,
      "description": "Vos texo certus utpote itaque minima appositus delego. Tricesimus animadverto vacuus volaticus terga desidero colligo angustus.",
      "features": {
        "generalAmenities": [
          "jacuzzi",
          "WiFi",
          "outdoor music",
          "bar",
          "garden",
          "speakers",
          "restaurant",
          "parking",
          "library",
          "fireplace",
          "pet friendly",
          "playground",
          "karaoke"
        ],
        "roomAmenities": ["hypoallergic bedding", "TV"],
        "neighbourhoods": [
          "national park",
          "park",
          "church",
          "mall",
          "restaurant",
          "sea",
          "historical monument",
          "lake"
        ],
        "handicapAccesibility": []
      },
      "sleepingDetails": { "maxCapacity": 2, "amountOfBeds": 2 },
      "checkInHour": "12pm",
      "checkOutHour": "10am",
      "distanceFromCityCenterInKM": 15,
      "contactDetails": {
        "phone": "1-291-539-8555 x4761",
        "email": "TheChristmasSongChestnutsRoastingOnAnOpenFire52@gmail.com"
      }
    },
    {
      "id": 7404,
      "venueId": 39,
      "location": { "postalCode": "52-561", "name": "Rupertville" },
      "pricePerNightInEUR": "392.00",
      "rating": 3.6,
      "numberOfReviews": 286,
      "capacity": 4,
      "name": "Dreamlover",
      "albumId": 62,
      "description": "Adficio appono trepide sollers nobis valeo copiose. Altus socius vorago dens solus voluptatum cum tersus sollers. Tempora amitto nam vulpes vox aestus bis. Urbs cupressus aliquid. Theca somniculosus vorago patrocinor demo clam iusto carbo eligendi. Ullam ventito synagoga cohors umquam coniecto alias subseco minus deinde. Desidero tunc amplus depereo defleo vita.",
      "features": {
        "generalAmenities": [
          "outdoor music",
          "indoor music",
          "jacuzzi",
          "restaurant"
        ],
        "roomAmenities": [
          "TV",
          "hypoallergic bedding",
          "safe",
          "bathroom facilities"
        ],
        "neighbourhoods": [
          "historical monument",
          "lake",
          "cinema",
          "restaurant"
        ],
        "handicapAccesibility": ["deaf friendly", "blind friendly"]
      },
      "sleepingDetails": { "maxCapacity": 4, "amountOfBeds": 3 },
      "checkInHour": "12pm",
      "checkOutHour": "10am",
      "distanceFromCityCenterInKM": 9,
      "contactDetails": {
        "phone": "352.383.4573",
        "email": "Dreamlover_Rupertville39@gmail.com"
      }
    },
    {
      "id": 12542,
      "venueId": 40,
      "location": { "postalCode": "91-256", "name": "Hanehaven" },
      "pricePerNightInEUR": "849.00",
      "rating": 1.7,
      "numberOfReviews": 2259,
      "capacity": 9,
      "name": "St George & the Dragonette",
      "albumId": 61,
      "description": "Tracto sophismata qui demo. Molestiae degusto aut arguo aeger crastinus tutis aegre admitto. Compello cohors non urbs vulgo. Demulceo ubi tubineus ciminatio derelinquo campana hic. Adfectus creptio accedo verus. Antea cresco adulescens sollicito coerceo conspergo aegrus.",
      "features": {
        "generalAmenities": ["playground", "garden", "bar"],
        "roomAmenities": [
          "kitchen facilities",
          "safe",
          "hypoallergic bedding",
          "TV"
        ],
        "neighbourhoods": [
          "mall",
          "zoo",
          "mountains",
          "museum",
          "restaurant",
          "sea",
          "park",
          "lake",
          "theatre",
          "national park",
          "old town",
          "amusement park"
        ],
        "handicapAccesibility": ["short-grown friendly", "blind friendly"]
      },
      "sleepingDetails": { "maxCapacity": 9, "amountOfBeds": 6 },
      "checkInHour": "12pm",
      "checkOutHour": "10am",
      "distanceFromCityCenterInKM": 18,
      "contactDetails": {
        "phone": "460.698.4898",
        "email": "StGeorgetheDragonette36@gmail.com"
      }
    },
    {
      "id": 8915,
      "venueId": 41,
      "location": { "postalCode": "76-883", "name": "Tillmanside" },
      "pricePerNightInEUR": "54.00",
      "rating": 3.2,
      "numberOfReviews": 9528,
      "capacity": 5,
      "name": "Whispering",
      "albumId": 60,
      "description": "Admoneo tergeo utique cernuus paulatim abscido repellat tubineus. Confido thema delicate. Supra dedecor vinum. Unus velum antiquus una ulciscor quis ater occaecati. Suffragium suffragium contego stillicidium magni studio tempus mollitia vorax admiratio.",
      "features": {
        "generalAmenities": [
          "karaoke",
          "fitness center",
          "bar",
          "pool",
          "fireplace",
          "WiFi",
          "parking",
          "garden",
          "speakers",
          "24h reception",
          "indoor music"
        ],
        "roomAmenities": ["hypoallergic bedding", "kitchen facilities", "TV"],
        "neighbourhoods": [
          "old town",
          "restaurant",
          "museum",
          "park",
          "cinema",
          "mountains",
          "amusement park",
          "mall",
          "forest",
          "national park",
          "lake",
          "sea"
        ],
        "handicapAccesibility": []
      },
      "sleepingDetails": { "maxCapacity": 5, "amountOfBeds": 3 },
      "checkInHour": "12pm",
      "checkOutHour": "10am",
      "distanceFromCityCenterInKM": 10,
      "contactDetails": {
        "phone": "964.658.3246 x913",
        "email": "Whispering.Tillmanside@yahoo.com"
      }
    },
    {
      "id": 18367,
      "venueId": 42,
      "location": { "postalCode": "59-873", "name": "Elfriedaville" },
      "pricePerNightInEUR": "17.00",
      "rating": 4.3,
      "numberOfReviews": 4910,
      "capacity": 10,
      "name": "Party Rock Anthem",
      "albumId": 59,
      "description": "Nam tyrannus agnosco aperte. Cupiditas triduana temporibus creo brevis vesco vilis vallum. Somnus texo textus deleniti contabesco arbitro barba verecundia. Cur tandem caute succurro alioqui cenaculum molestiae compello ubi. Crux vis apto coniecto suggero ulciscor amaritudo turbo timor corrupti. Inventore ver dens.",
      "features": {
        "generalAmenities": [
          "garden",
          "outdoor music",
          "parking",
          "fitness center",
          "restaurant"
        ],
        "roomAmenities": ["safe", "bathroom facilities"],
        "neighbourhoods": ["park", "lake", "national park", "museum"],
        "handicapAccesibility": ["wheelchair friendly", "blind friendly"]
      },
      "sleepingDetails": { "maxCapacity": 10, "amountOfBeds": 5 },
      "checkInHour": "12pm",
      "checkOutHour": "10am",
      "distanceFromCityCenterInKM": 28,
      "contactDetails": {
        "phone": "998-880-3951 x90076",
        "email": "PartyRockAnthem10@yahoo.com"
      }
    },
    {
      "id": 19699,
      "venueId": 43,
      "location": { "postalCode": "57-557", "name": "East Cassandreworth" },
      "pricePerNightInEUR": "298.00",
      "rating": 2.8,
      "numberOfReviews": 7232,
      "capacity": 8,
      "name": "Say My Name",
      "albumId": 58,
      "description": "Ascit dolore damnatio viduo. Textor laboriosam laudantium ventosus curis. Aeternus consequuntur aestivus somniculosus cohors defessus. Apostolus unus aperte dignissimos.",
      "features": {
        "generalAmenities": ["WiFi", "pool", "speakers", "playground"],
        "roomAmenities": [
          "hypoallergic bedding",
          "TV",
          "safe",
          "kitchen facilities"
        ],
        "neighbourhoods": [
          "forest",
          "museum",
          "park",
          "amusement park",
          "mountains",
          "sea"
        ],
        "handicapAccesibility": ["deaf friendly"]
      },
      "sleepingDetails": { "maxCapacity": 8, "amountOfBeds": 7 },
      "checkInHour": "12pm",
      "checkOutHour": "10am",
      "distanceFromCityCenterInKM": 17,
      "contactDetails": {
        "phone": "(461) 386-0405 x72980",
        "email": "SayMyName_EastCassandreworth18@hotmail.com"
      }
    },
    {
      "id": 926,
      "venueId": 44,
      "location": { "postalCode": "48-740", "name": "Fort Jamesonbury" },
      "pricePerNightInEUR": "124.00",
      "rating": 1.6,
      "numberOfReviews": 6353,
      "capacity": 6,
      "name": "A String of Pearls",
      "albumId": 57,
      "description": "Deludo stipes comminor centum vestrum doloremque creta solutio sumptus. Dolores varietas acquiro debilito. Aegrotatio credo deleniti hic vesica quas velum ascisco ubi. Fuga adhaero recusandae. Audeo vesper advenio vestigium vulgo ara cubicularis. Caute crastinus deripio claro depopulo suscipit. Coma uberrime testimonium voluptate tamdiu cuppedia harum consequatur tergo.",
      "features": {
        "generalAmenities": [
          "fitness center",
          "24h reception",
          "jacuzzi",
          "garden",
          "bar",
          "karaoke",
          "restaurant",
          "speakers",
          "parking",
          "library",
          "fireplace",
          "indoor music",
          "playground"
        ],
        "roomAmenities": [
          "TV",
          "safe",
          "kitchen facilities",
          "bathroom facilities"
        ],
        "neighbourhoods": [
          "theatre",
          "forest",
          "church",
          "sea",
          "lake",
          "national park",
          "amusement park",
          "park"
        ],
        "handicapAccesibility": []
      },
      "sleepingDetails": { "maxCapacity": 6, "amountOfBeds": 6 },
      "checkInHour": "12pm",
      "checkOutHour": "10am",
      "distanceFromCityCenterInKM": 8,
      "contactDetails": {
        "phone": "(412) 887-4303 x437",
        "email": "AStringofPearls_FortJamesonbury@hotmail.com"
      }
    },
    {
      "id": 4524,
      "venueId": 45,
      "location": { "postalCode": "07-286", "name": "New Westleyfield" },
      "pricePerNightInEUR": "694.00",
      "rating": 3.2,
      "numberOfReviews": 6281,
      "capacity": 4,
      "name": "Jump",
      "albumId": 56,
      "description": "Inventore avaritia agnosco sed paulatim alioqui. Eveniet cognomen aut vado esse blanditiis quidem debeo. Velut surgo defaeco caries vacuus ab acies quia.",
      "features": {
        "generalAmenities": [
          "pool",
          "outdoor music",
          "bar",
          "playground",
          "speakers",
          "library",
          "restaurant"
        ],
        "roomAmenities": ["bathroom facilities", "hypoallergic bedding"],
        "neighbourhoods": ["church", "national park", "forest", "cinema"],
        "handicapAccesibility": []
      },
      "sleepingDetails": { "maxCapacity": 4, "amountOfBeds": 3 },
      "checkInHour": "12pm",
      "checkOutHour": "10am",
      "distanceFromCityCenterInKM": 25,
      "contactDetails": { "phone": "309-231-8041", "email": "Jump54@gmail.com" }
    },
    {
      "id": 18147,
      "venueId": 46,
      "location": { "postalCode": "30-095", "name": "Fort Dimitri" },
      "pricePerNightInEUR": "769.00",
      "rating": 2.4,
      "numberOfReviews": 2938,
      "capacity": 12,
      "name": "We Didn't Start the Fire",
      "albumId": 55,
      "description": "Tenetur aestas teres conspergo admiratio. Denego alienus avaritia vehemens cumque ulciscor suadeo aegrotatio. Reiciendis conventus capillus sunt theologus templum numquam odit voluptatibus. Adiuvo bene charisma amoveo quibusdam ulciscor colligo thorax tumultus. Deporto comptus audeo capio stipes acerbitas apostolus suffragium. Commemoro artificiose auxilium aestus culpa vox terra. Utor sophismata arbitro cur.",
      "features": {
        "generalAmenities": [
          "WiFi",
          "fitness center",
          "parking",
          "pool",
          "restaurant",
          "bar",
          "garden",
          "speakers",
          "24h reception",
          "karaoke",
          "jacuzzi",
          "library",
          "outdoor music",
          "fireplace"
        ],
        "roomAmenities": ["kitchen facilities"],
        "neighbourhoods": ["museum", "theatre", "historical monument"],
        "handicapAccesibility": []
      },
      "sleepingDetails": { "maxCapacity": 12, "amountOfBeds": 11 },
      "checkInHour": "12pm",
      "checkOutHour": "10am",
      "distanceFromCityCenterInKM": 18,
      "contactDetails": {
        "phone": "309.525.9013 x98259",
        "email": "WeDidntStarttheFire53@gmail.com"
      }
    },
    {
      "id": 8980,
      "venueId": 47,
      "location": { "postalCode": "68-562", "name": "East Camila" },
      "pricePerNightInEUR": "648.00",
      "rating": 2.4,
      "numberOfReviews": 5760,
      "capacity": 12,
      "name": "Ray of Light",
      "albumId": 54,
      "description": "Compello averto demo id clementia. Iure ipsum solum supra complectus utroque stipes mollitia cupressus. Aptus sapiente caritas degusto capto degusto. Culpa cariosus creator apud aeneus iure. Pectus ipsum decretum defessus despecto apud angustus cumque agnosco. Abundans vito triduana certe conduco tergeo carbo desparatus. Turpis defluo thymbra verto cursim aduro verto.",
      "features": {
        "generalAmenities": ["playground", "fitness center", "bar"],
        "roomAmenities": ["bathroom facilities", "kitchen facilities"],
        "neighbourhoods": ["restaurant", "mall", "sea"],
        "handicapAccesibility": ["deaf friendly", "blind friendly"]
      },
      "sleepingDetails": { "maxCapacity": 12, "amountOfBeds": 9 },
      "checkInHour": "12pm",
      "checkOutHour": "10am",
      "distanceFromCityCenterInKM": 3,
      "contactDetails": {
        "phone": "947-364-8941 x878",
        "email": "RayofLight`EastCamila18@yahoo.com"
      }
    },
    {
      "id": 6550,
      "venueId": 48,
      "location": { "postalCode": "78-718", "name": "Jaskolskiton" },
      "pricePerNightInEUR": "151.00",
      "rating": 4.1,
      "numberOfReviews": 4144,
      "capacity": 9,
      "name": "Be My Baby",
      "albumId": 53,
      "description": "Adfero eveniet conqueror. Calco nam comitatus minus ipsum combibo super. Cernuus terreo virtus atrox contego accusamus degero eveniet. Adipisci aduro sordeo admoveo ambulo aliquid carpo aestus despecto voluptatibus. Avarus aspernatur vigor cruciamentum.",
      "features": {
        "generalAmenities": [
          "pool",
          "playground",
          "fireplace",
          "speakers",
          "pet friendly",
          "library",
          "jacuzzi",
          "WiFi",
          "indoor music",
          "fitness center",
          "parking",
          "restaurant",
          "outdoor music",
          "karaoke",
          "24h reception",
          "garden"
        ],
        "roomAmenities": ["kitchen facilities"],
        "neighbourhoods": [
          "old town",
          "historical monument",
          "restaurant",
          "mall",
          "theatre",
          "lake",
          "amusement park",
          "zoo",
          "mountains",
          "sea"
        ],
        "handicapAccesibility": ["blind friendly", "wheelchair friendly"]
      },
      "sleepingDetails": { "maxCapacity": 9, "amountOfBeds": 6 },
      "checkInHour": "12pm",
      "checkOutHour": "10am",
      "distanceFromCityCenterInKM": 7,
      "contactDetails": {
        "phone": "1-957-567-5599",
        "email": "BeMyBaby88@gmail.com"
      }
    },
    {
      "id": 3873,
      "venueId": 49,
      "location": { "postalCode": "56-758", "name": "New Donavontown" },
      "pricePerNightInEUR": "184.00",
      "rating": 1,
      "numberOfReviews": 8300,
      "capacity": 9,
      "name": "Let Me Call You Sweetheart",
      "albumId": 52,
      "description": "Uter temporibus virga stillicidium voluptatibus eaque. Deleo deorsum sto amiculum magnam. Cognatus pecto crur vulariter conatus. Vaco uxor civis ambulo. Tempus denego veniam vilicus beatus asperiores terebro antepono conicio ducimus. Suspendo aegrotatio cupiditas animi tum deorsum.",
      "features": {
        "generalAmenities": [
          "parking",
          "outdoor music",
          "bar",
          "fireplace",
          "pool",
          "jacuzzi",
          "speakers",
          "WiFi",
          "indoor music",
          "playground",
          "library",
          "pet friendly",
          "restaurant",
          "fitness center",
          "garden",
          "karaoke",
          "24h reception"
        ],
        "roomAmenities": [
          "kitchen facilities",
          "safe",
          "TV",
          "hypoallergic bedding",
          "bathroom facilities"
        ],
        "neighbourhoods": [
          "theatre",
          "museum",
          "historical monument",
          "national park",
          "lake",
          "zoo",
          "mountains",
          "old town",
          "church",
          "restaurant",
          "amusement park",
          "mall",
          "sea"
        ],
        "handicapAccesibility": []
      },
      "sleepingDetails": { "maxCapacity": 9, "amountOfBeds": 5 },
      "checkInHour": "12pm",
      "checkOutHour": "10am",
      "distanceFromCityCenterInKM": 5,
      "contactDetails": {
        "phone": "282.427.7478 x6913",
        "email": "LetMeCallYouSweetheart74@yahoo.com"
      }
    },
    {
      "id": 12112,
      "venueId": 50,
      "location": { "postalCode": "55-925", "name": "Fort Aniyahville" },
      "pricePerNightInEUR": "657.00",
      "rating": 2.1,
      "numberOfReviews": 2229,
      "capacity": 1,
      "name": "That Lucky Old Sun (Just Rolls Around Heaven All Day)",
      "albumId": 51,
      "description": "Credo voluptatibus ipsa. Ara beatae porro thesaurus derelinquo acceptus blanditiis. Incidunt spectaculum vorax tamdiu crinis asper vilitas venustas suadeo. Ex causa sunt vorax patria vesco stips tergeo urbs. Capio artificiose delicate vespillo vado cenaculum. Tero curo terminatio ducimus adeo voluptatum vestrum cohibeo stillicidium.",
      "features": {
        "generalAmenities": [
          "karaoke",
          "bar",
          "library",
          "restaurant",
          "fireplace",
          "playground",
          "parking",
          "24h reception",
          "garden"
        ],
        "roomAmenities": [
          "bathroom facilities",
          "kitchen facilities",
          "TV",
          "hypoallergic bedding",
          "safe"
        ],
        "neighbourhoods": [
          "church",
          "restaurant",
          "theatre",
          "museum",
          "national park",
          "zoo",
          "mountains",
          "amusement park",
          "old town",
          "cinema",
          "sea",
          "forest",
          "lake",
          "park",
          "mall"
        ],
        "handicapAccesibility": ["blind friendly", "wheelchair friendly"]
      },
      "sleepingDetails": { "maxCapacity": 1, "amountOfBeds": 1 },
      "checkInHour": "12pm",
      "checkOutHour": "10am",
      "distanceFromCityCenterInKM": 22,
      "contactDetails": {
        "phone": "282.280.2561 x6343",
        "email": "ThatLuckyOldSunJustRollsAroundHeavenAllDay.FortAni@hotmail.com"
      }
    },
    {
      "id": 12517,
      "venueId": 51,
      "location": { "postalCode": "76-589", "name": "South Valley" },
      "pricePerNightInEUR": "665.00",
      "rating": 2.6,
      "numberOfReviews": 4180,
      "capacity": 10,
      "name": "Whole Lotta Love",
      "albumId": 50,
      "description": "Venia comitatus acquiro cena. Vos cohors quae catena ulciscor excepturi temperantia. Veritas antepono tonsor illum suffragium chirographum voro utor. Atque solum ex sonitus.",
      "features": {
        "generalAmenities": [
          "pool",
          "restaurant",
          "playground",
          "library",
          "indoor music",
          "24h reception",
          "pet friendly",
          "bar",
          "fireplace",
          "speakers",
          "karaoke",
          "jacuzzi",
          "outdoor music",
          "WiFi",
          "parking",
          "fitness center",
          "garden"
        ],
        "roomAmenities": ["hypoallergic bedding"],
        "neighbourhoods": [
          "sea",
          "lake",
          "historical monument",
          "mountains",
          "forest",
          "church"
        ],
        "handicapAccesibility": ["short-grown friendly"]
      },
      "sleepingDetails": { "maxCapacity": 10, "amountOfBeds": 5 },
      "checkInHour": "12pm",
      "checkOutHour": "10am",
      "distanceFromCityCenterInKM": 23,
      "contactDetails": {
        "phone": "1-414-531-2512",
        "email": "WholeLottaLove&SouthValley73@gmail.com"
      }
    },
    {
      "id": 4256,
      "venueId": 52,
      "location": { "postalCode": "74-508", "name": "Lake Jordon" },
      "pricePerNightInEUR": "400.00",
      "rating": 2.3,
      "numberOfReviews": 9904,
      "capacity": 11,
      "name": "Kiss",
      "albumId": 49,
      "description": "Civitas conservo vehemens utique confido pecco degenero conventus. Atque ara volubilis ubi summisse abeo deorsum solio. Vulticulus vindico certe uberrime viduo basium aeneus cohibeo super usque. Somnus voluptate consectetur conforto. Illum carcer alioqui. Cunae demergo aestas cognatus supellex attollo valens. Adhaero barba vae coma desipio.",
      "features": {
        "generalAmenities": [
          "garden",
          "fitness center",
          "jacuzzi",
          "pool",
          "24h reception"
        ],
        "roomAmenities": [
          "bathroom facilities",
          "kitchen facilities",
          "TV",
          "safe"
        ],
        "neighbourhoods": [
          "park",
          "lake",
          "museum",
          "mall",
          "forest",
          "old town",
          "zoo",
          "restaurant",
          "theatre",
          "cinema",
          "church",
          "historical monument"
        ],
        "handicapAccesibility": ["deaf friendly", "blind friendly"]
      },
      "sleepingDetails": { "maxCapacity": 11, "amountOfBeds": 10 },
      "checkInHour": "12pm",
      "checkOutHour": "10am",
      "distanceFromCityCenterInKM": 20,
      "contactDetails": {
        "phone": "1-971-434-7119 x97181",
        "email": "Kiss*LakeJordon64@gmail.com"
      }
    },
    {
      "id": 9331,
      "venueId": 53,
      "location": { "postalCode": "83-029", "name": "East Trudie" },
      "pricePerNightInEUR": "510.00",
      "rating": 4.5,
      "numberOfReviews": 432,
      "capacity": 4,
      "name": "Suspicious Minds",
      "albumId": 48,
      "description": "Conduco defleo advenio una supellex crinis attonbitus. Odit cupressus tremo valde ipsam carcer soluta non speculum. Vaco clibanus defaeco. Ipsum facilis bonus degenero vox conforto. Officiis consectetur solvo cresco clarus contra curis vix.",
      "features": {
        "generalAmenities": [
          "indoor music",
          "24h reception",
          "fireplace",
          "outdoor music",
          "karaoke",
          "parking",
          "library",
          "pool",
          "speakers",
          "WiFi",
          "bar",
          "jacuzzi",
          "fitness center",
          "garden",
          "pet friendly",
          "playground",
          "restaurant"
        ],
        "roomAmenities": ["hypoallergic bedding"],
        "neighbourhoods": [
          "amusement park",
          "forest",
          "cinema",
          "zoo",
          "national park",
          "lake",
          "museum",
          "restaurant",
          "old town",
          "sea",
          "park",
          "church",
          "mall",
          "theatre",
          "mountains",
          "historical monument"
        ],
        "handicapAccesibility": [
          "short-grown friendly",
          "wheelchair friendly",
          "deaf friendly"
        ]
      },
      "sleepingDetails": { "maxCapacity": 4, "amountOfBeds": 4 },
      "checkInHour": "12pm",
      "checkOutHour": "10am",
      "distanceFromCityCenterInKM": 13,
      "contactDetails": {
        "phone": "(619) 282-4370 x14452",
        "email": "SuspiciousMinds84@hotmail.com"
      }
    },
    {
      "id": 15287,
      "venueId": 54,
      "location": { "postalCode": "28-586", "name": "Chattanooga" },
      "pricePerNightInEUR": "603.00",
      "rating": 2.7,
      "numberOfReviews": 2088,
      "capacity": 5,
      "name": "Hanky Panky",
      "albumId": 47,
      "description": "Aegre decumbo defluo libero tubineus defero rem acerbitas torrens. Certe cedo totidem aestas.",
      "features": {
        "generalAmenities": [
          "24h reception",
          "indoor music",
          "library",
          "karaoke",
          "jacuzzi",
          "restaurant",
          "speakers"
        ],
        "roomAmenities": [
          "safe",
          "hypoallergic bedding",
          "kitchen facilities",
          "TV"
        ],
        "neighbourhoods": [
          "old town",
          "lake",
          "mall",
          "forest",
          "park",
          "church",
          "cinema",
          "mountains",
          "amusement park",
          "theatre",
          "zoo",
          "national park",
          "museum",
          "sea",
          "restaurant",
          "historical monument"
        ],
        "handicapAccesibility": [
          "deaf friendly",
          "short-grown friendly",
          "blind friendly"
        ]
      },
      "sleepingDetails": { "maxCapacity": 5, "amountOfBeds": 4 },
      "checkInHour": "12pm",
      "checkOutHour": "10am",
      "distanceFromCityCenterInKM": 13,
      "contactDetails": {
        "phone": "661.511.2062",
        "email": "HankyPanky'Chattanooga36@gmail.com"
      }
    },
    {
      "id": 2477,
      "venueId": 55,
      "location": { "postalCode": "24-259", "name": "New Wandastead" },
      "pricePerNightInEUR": "960.00",
      "rating": 1.1,
      "numberOfReviews": 9201,
      "capacity": 11,
      "name": "Car Wash",
      "albumId": 46,
      "description": "Adversus suspendo pariatur. Volva anser ventosus uxor contego defero. Tyrannus alioqui avarus vitiosus peccatus collum. Despecto versus creo corpus defero caterva aeger atqui adipisci. Voveo arcus adstringo compello.",
      "features": {
        "generalAmenities": [
          "fireplace",
          "indoor music",
          "pet friendly",
          "playground",
          "WiFi",
          "parking",
          "library",
          "fitness center",
          "pool",
          "karaoke",
          "bar",
          "24h reception",
          "jacuzzi",
          "restaurant",
          "outdoor music"
        ],
        "roomAmenities": ["kitchen facilities"],
        "neighbourhoods": [
          "park",
          "old town",
          "theatre",
          "amusement park",
          "museum",
          "zoo",
          "forest",
          "mall",
          "national park",
          "restaurant",
          "church",
          "sea",
          "cinema",
          "mountains",
          "lake"
        ],
        "handicapAccesibility": ["wheelchair friendly", "deaf friendly"]
      },
      "sleepingDetails": { "maxCapacity": 11, "amountOfBeds": 9 },
      "checkInHour": "12pm",
      "checkOutHour": "10am",
      "distanceFromCityCenterInKM": 23,
      "contactDetails": {
        "phone": "1-986-255-4322 x422",
        "email": "CarWash95@hotmail.com"
      }
    },
    {
      "id": 10065,
      "venueId": 56,
      "location": { "postalCode": "23-544", "name": "Pfefferburgh" },
      "pricePerNightInEUR": "897.00",
      "rating": 4.2,
      "numberOfReviews": 3687,
      "capacity": 6,
      "name": "Hang On Sloopy",
      "albumId": 45,
      "description": "Cilicium tot magnam texo tutis cruentus. Comparo arceo depono crastinus cuppedia. Tantillus tendo vorago vinco attero thesis tricesimus. Curo antepono tristis ducimus aequitas caveo sumptus censura id argentum.",
      "features": {
        "generalAmenities": [
          "bar",
          "jacuzzi",
          "karaoke",
          "24h reception",
          "WiFi",
          "outdoor music",
          "pet friendly",
          "fitness center",
          "parking",
          "playground",
          "garden"
        ],
        "roomAmenities": ["kitchen facilities"],
        "neighbourhoods": [
          "cinema",
          "historical monument",
          "mall",
          "zoo",
          "national park",
          "amusement park",
          "park",
          "lake",
          "museum"
        ],
        "handicapAccesibility": ["deaf friendly", "wheelchair friendly"]
      },
      "sleepingDetails": { "maxCapacity": 6, "amountOfBeds": 3 },
      "checkInHour": "12pm",
      "checkOutHour": "10am",
      "distanceFromCityCenterInKM": 8,
      "contactDetails": {
        "phone": "(670) 622-1259",
        "email": "HangOnSloopy_Pfefferburgh66@hotmail.com"
      }
    },
    {
      "id": 12082,
      "venueId": 57,
      "location": { "postalCode": "49-972", "name": "Franciscachester" },
      "pricePerNightInEUR": "55.00",
      "rating": 4.7,
      "numberOfReviews": 7520,
      "capacity": 12,
      "name": "Magic",
      "albumId": 44,
      "description": "Thalassinus tabella cupiditas cunae victoria inventore. Creo usitas vitae cubicularis creber in. Ratione ullam claustrum conor conscendo. Caterva timidus anser rem caelum venio. Defetiscor in ver adimpleo tantum. Tamdiu derideo adfero baiulus atqui nobis autem suscipit.",
      "features": {
        "generalAmenities": ["garden", "jacuzzi", "fireplace", "restaurant"],
        "roomAmenities": ["kitchen facilities", "TV"],
        "neighbourhoods": [
          "mall",
          "theatre",
          "restaurant",
          "museum",
          "historical monument",
          "church",
          "old town",
          "lake"
        ],
        "handicapAccesibility": []
      },
      "sleepingDetails": { "maxCapacity": 12, "amountOfBeds": 10 },
      "checkInHour": "12pm",
      "checkOutHour": "10am",
      "distanceFromCityCenterInKM": 10,
      "contactDetails": {
        "phone": "1-997-831-3221 x6895",
        "email": "Magic.Franciscachester76@gmail.com"
      }
    },
    {
      "id": 14666,
      "venueId": 58,
      "location": { "postalCode": "12-927", "name": "New Zoie" },
      "pricePerNightInEUR": "957.00",
      "rating": 3,
      "numberOfReviews": 1628,
      "capacity": 3,
      "name": "Harbour Lights",
      "albumId": 43,
      "description": "Suffoco in ventito super volo cur caterva. Careo temperantia aedificium creo explicabo caveo altus arbor angulus. Voluptas nihil alveus eligendi mollitia illo apostolus ascisco pecus temporibus. Veniam comes absconditus verecundia ipsam abeo dicta calcar cotidie. Compello artificiose compello. Ceno timor volo. Clementia vis condico curis asper.",
      "features": {
        "generalAmenities": [
          "jacuzzi",
          "bar",
          "fireplace",
          "outdoor music",
          "library",
          "restaurant",
          "fitness center",
          "indoor music",
          "playground",
          "karaoke",
          "24h reception",
          "speakers",
          "pet friendly"
        ],
        "roomAmenities": [
          "TV",
          "bathroom facilities",
          "kitchen facilities",
          "hypoallergic bedding",
          "safe"
        ],
        "neighbourhoods": [
          "national park",
          "museum",
          "mountains",
          "old town",
          "restaurant",
          "mall"
        ],
        "handicapAccesibility": [
          "deaf friendly",
          "wheelchair friendly",
          "short-grown friendly"
        ]
      },
      "sleepingDetails": { "maxCapacity": 3, "amountOfBeds": 2 },
      "checkInHour": "12pm",
      "checkOutHour": "10am",
      "distanceFromCityCenterInKM": 20,
      "contactDetails": {
        "phone": "1-306-371-5096 x09617",
        "email": "HarbourLights.NewZoie@gmail.com"
      }
    },
    {
      "id": 1160,
      "venueId": 59,
      "location": { "postalCode": "55-155", "name": "Grand Rapids" },
      "pricePerNightInEUR": "571.00",
      "rating": 1.3,
      "numberOfReviews": 3527,
      "capacity": 11,
      "name": "Pon De Replay",
      "albumId": 42,
      "description": "Accommodo aestivus tametsi. Ducimus deduco voluptatibus sollers coruscus spes bardus sed.",
      "features": {
        "generalAmenities": ["outdoor music", "karaoke", "playground"],
        "roomAmenities": ["bathroom facilities", "TV"],
        "neighbourhoods": ["restaurant", "old town", "zoo", "forest"],
        "handicapAccesibility": []
      },
      "sleepingDetails": { "maxCapacity": 11, "amountOfBeds": 9 },
      "checkInHour": "12pm",
      "checkOutHour": "10am",
      "distanceFromCityCenterInKM": 1,
      "contactDetails": {
        "phone": "753-467-4785 x251",
        "email": "PonDeReplay_GrandRapids@yahoo.com"
      }
    },
    {
      "id": 18042,
      "venueId": 60,
      "location": { "postalCode": "62-820", "name": "Arden-Arcade" },
      "pricePerNightInEUR": "232.00",
      "rating": 1.6,
      "numberOfReviews": 1746,
      "capacity": 8,
      "name": "Like a Virgin",
      "albumId": 41,
      "description": "Nostrum copia depromo communis. Acer vinco abduco. Undique cur magnam venustas amplitudo vulnero. Arcesso adhuc viscus solvo. Caterva curto acies expedita accendo dolorem vergo. Crinis ambitus speculum aurum strenuus varietas.",
      "features": {
        "generalAmenities": [
          "playground",
          "fireplace",
          "outdoor music",
          "parking",
          "karaoke",
          "bar"
        ],
        "roomAmenities": [
          "kitchen facilities",
          "TV",
          "safe",
          "bathroom facilities",
          "hypoallergic bedding"
        ],
        "neighbourhoods": [
          "old town",
          "theatre",
          "church",
          "lake",
          "amusement park",
          "mountains",
          "forest",
          "cinema",
          "national park",
          "park",
          "museum",
          "restaurant",
          "historical monument",
          "sea"
        ],
        "handicapAccesibility": ["wheelchair friendly"]
      },
      "sleepingDetails": { "maxCapacity": 8, "amountOfBeds": 8 },
      "checkInHour": "12pm",
      "checkOutHour": "10am",
      "distanceFromCityCenterInKM": 8,
      "contactDetails": {
        "phone": "(576) 744-3751",
        "email": "LikeaVirgin67@hotmail.com"
      }
    },
    {
      "id": 17660,
      "venueId": 61,
      "location": { "postalCode": "18-541", "name": "Fort Shawn" },
      "pricePerNightInEUR": "319.00",
      "rating": 1.7,
      "numberOfReviews": 4223,
      "capacity": 2,
      "name": "Jailhouse Rock",
      "albumId": 40,
      "description": "Ulciscor una bardus cultellus tendo. Alias admoneo non.",
      "features": {
        "generalAmenities": [
          "indoor music",
          "karaoke",
          "playground",
          "outdoor music",
          "pool",
          "24h reception",
          "pet friendly",
          "fitness center"
        ],
        "roomAmenities": [
          "hypoallergic bedding",
          "safe",
          "kitchen facilities",
          "bathroom facilities",
          "TV"
        ],
        "neighbourhoods": [
          "mountains",
          "park",
          "historical monument",
          "cinema",
          "church",
          "national park",
          "zoo",
          "sea",
          "restaurant"
        ],
        "handicapAccesibility": [
          "deaf friendly",
          "wheelchair friendly",
          "short-grown friendly",
          "blind friendly"
        ]
      },
      "sleepingDetails": { "maxCapacity": 2, "amountOfBeds": 2 },
      "checkInHour": "12pm",
      "checkOutHour": "10am",
      "distanceFromCityCenterInKM": 24,
      "contactDetails": {
        "phone": "521-696-5827 x48410",
        "email": "JailhouseRock34@gmail.com"
      }
    },
    {
      "id": 2859,
      "venueId": 62,
      "location": { "postalCode": "39-013", "name": "Rogers" },
      "pricePerNightInEUR": "214.00",
      "rating": 1,
      "numberOfReviews": 676,
      "capacity": 6,
      "name": "So Much in Love",
      "albumId": 39,
      "description": "Creta versus deleniti velociter debilito adicio trepide capitulus balbus solitudo. Comburo rerum ullus absque stella conculco. Admoveo amplus teneo curto. Atavus dignissimos terminatio cras substantia desidero avarus demens. Anser cilicium vociferor ipsum atrox. Calamitas statua vulpes adiuvo allatus aer curvo deleniti audentia.",
      "features": {
        "generalAmenities": [
          "fitness center",
          "parking",
          "outdoor music",
          "garden",
          "library",
          "WiFi"
        ],
        "roomAmenities": ["hypoallergic bedding"],
        "neighbourhoods": [
          "church",
          "theatre",
          "cinema",
          "mountains",
          "zoo",
          "park",
          "national park",
          "mall",
          "amusement park",
          "lake",
          "forest",
          "old town",
          "historical monument",
          "sea"
        ],
        "handicapAccesibility": [
          "wheelchair friendly",
          "blind friendly",
          "deaf friendly",
          "short-grown friendly"
        ]
      },
      "sleepingDetails": { "maxCapacity": 6, "amountOfBeds": 5 },
      "checkInHour": "12pm",
      "checkOutHour": "10am",
      "distanceFromCityCenterInKM": 6,
      "contactDetails": {
        "phone": "1-477-834-3912 x74941",
        "email": "SoMuchinLove_Rogers@yahoo.com"
      }
    },
    {
      "id": 8924,
      "venueId": 63,
      "location": { "postalCode": "95-379", "name": "West Ivy" },
      "pricePerNightInEUR": "115.00",
      "rating": 4,
      "numberOfReviews": 8908,
      "capacity": 6,
      "name": "Unchained Melody",
      "albumId": 38,
      "description": "Tabesco sui civis amplus tendo victoria usus cicuta. Vitium rerum aut usque sponte tantillus sordeo. Vorax ipsum cito ter videlicet reprehenderit vulgaris trucido speculum substantia. Vito defero quas terreo aut.",
      "features": {
        "generalAmenities": [
          "parking",
          "jacuzzi",
          "24h reception",
          "WiFi",
          "outdoor music",
          "pet friendly",
          "karaoke",
          "fireplace",
          "fitness center",
          "bar",
          "speakers",
          "pool",
          "library",
          "indoor music",
          "restaurant",
          "garden"
        ],
        "roomAmenities": [
          "hypoallergic bedding",
          "TV",
          "kitchen facilities",
          "bathroom facilities"
        ],
        "neighbourhoods": [
          "cinema",
          "church",
          "sea",
          "forest",
          "zoo",
          "lake",
          "historical monument",
          "old town",
          "national park"
        ],
        "handicapAccesibility": ["blind friendly", "short-grown friendly"]
      },
      "sleepingDetails": { "maxCapacity": 6, "amountOfBeds": 4 },
      "checkInHour": "12pm",
      "checkOutHour": "10am",
      "distanceFromCityCenterInKM": 8,
      "contactDetails": {
        "phone": "1-707-492-3589 x9284",
        "email": "UnchainedMelody.WestIvy@yahoo.com"
      }
    },
    {
      "id": 254,
      "venueId": 64,
      "location": { "postalCode": "41-306", "name": "Lesleymouth" },
      "pricePerNightInEUR": "329.00",
      "rating": 2,
      "numberOfReviews": 3169,
      "capacity": 11,
      "name": "Flashdance. What a Feeling",
      "albumId": 37,
      "description": "Adstringo cursus defaeco dolore cupio. Video pauci surgo appello atque crudelis compono caritas commemoro via. Capillus arbor cattus adicio triduana.",
      "features": {
        "generalAmenities": [
          "speakers",
          "restaurant",
          "WiFi",
          "indoor music",
          "library",
          "bar",
          "fireplace",
          "playground",
          "outdoor music",
          "24h reception",
          "parking",
          "garden",
          "karaoke",
          "pool"
        ],
        "roomAmenities": [
          "kitchen facilities",
          "safe",
          "hypoallergic bedding",
          "bathroom facilities",
          "TV"
        ],
        "neighbourhoods": ["mall", "park", "old town", "sea", "restaurant"],
        "handicapAccesibility": []
      },
      "sleepingDetails": { "maxCapacity": 11, "amountOfBeds": 8 },
      "checkInHour": "12pm",
      "checkOutHour": "10am",
      "distanceFromCityCenterInKM": 15,
      "contactDetails": {
        "phone": "(786) 676-4973",
        "email": "Flashdance.WhataFeeling44@hotmail.com"
      }
    },
    {
      "id": 12815,
      "venueId": 65,
      "location": { "postalCode": "29-971", "name": "Tinatown" },
      "pricePerNightInEUR": "111.00",
      "rating": 3,
      "numberOfReviews": 6742,
      "capacity": 9,
      "name": "Harbour Lights",
      "albumId": 36,
      "description": "Absconditus damno currus deripio terreo auxilium. Tergiversatio desipio certus coruscus ipsum coma carus tamquam trans. Alii praesentium approbo concedo venia candidus alias voco calamitas agnitio. Bellicus eum utor uredo undique adeptio accommodo assumenda collum.",
      "features": {
        "generalAmenities": [
          "fitness center",
          "fireplace",
          "24h reception",
          "outdoor music",
          "pet friendly",
          "speakers",
          "parking",
          "jacuzzi",
          "library",
          "bar",
          "restaurant"
        ],
        "roomAmenities": [
          "kitchen facilities",
          "hypoallergic bedding",
          "bathroom facilities",
          "safe",
          "TV"
        ],
        "neighbourhoods": ["zoo", "mall", "museum", "restaurant", "theatre"],
        "handicapAccesibility": [
          "short-grown friendly",
          "blind friendly",
          "deaf friendly",
          "wheelchair friendly"
        ]
      },
      "sleepingDetails": { "maxCapacity": 9, "amountOfBeds": 8 },
      "checkInHour": "12pm",
      "checkOutHour": "10am",
      "distanceFromCityCenterInKM": 4,
      "contactDetails": {
        "phone": "1-461-526-4610 x50426",
        "email": "HarbourLights90@yahoo.com"
      }
    },
    {
      "id": 2888,
      "venueId": 66,
      "location": { "postalCode": "53-438", "name": "South Daryl" },
      "pricePerNightInEUR": "446.00",
      "rating": 2.7,
      "numberOfReviews": 2527,
      "capacity": 8,
      "name": "Mickey",
      "albumId": 35,
      "description": "Annus annus auctus cultellus temporibus cuius tabula dolores sapiente. Pax casso aegre surculus verbum copiose versus substantia conscendo. Surculus paulatim ullus aspicio conor aegre. Cursim perspiciatis cometes.",
      "features": {
        "generalAmenities": [
          "bar",
          "fitness center",
          "restaurant",
          "library",
          "jacuzzi",
          "parking",
          "fireplace",
          "outdoor music",
          "garden"
        ],
        "roomAmenities": ["bathroom facilities", "safe", "TV"],
        "neighbourhoods": ["forest", "mountains", "amusement park", "mall"],
        "handicapAccesibility": [
          "deaf friendly",
          "blind friendly",
          "wheelchair friendly"
        ]
      },
      "sleepingDetails": { "maxCapacity": 8, "amountOfBeds": 7 },
      "checkInHour": "12pm",
      "checkOutHour": "10am",
      "distanceFromCityCenterInKM": 12,
      "contactDetails": {
        "phone": "1-969-634-0931 x3111",
        "email": "Mickey_SouthDaryl41@yahoo.com"
      }
    },
    {
      "id": 4498,
      "venueId": 67,
      "location": { "postalCode": "38-862", "name": "Frankieshire" },
      "pricePerNightInEUR": "368.00",
      "rating": 2.7,
      "numberOfReviews": 4314,
      "capacity": 1,
      "name": "Whoomp! (There it Is)",
      "albumId": 34,
      "description": "Mollitia subseco urbs aegrus thymbra arma crapula tertius. Amplexus depopulo eius absque. Torqueo contigo vergo ratione speciosus utilis appositus carpo corrumpo. Tristis triumphus quam. Sapiente valde talus cupio ciminatio volaticus assentator aqua summisse consectetur. Amet suppono dolores theologus via patior angelus alter cariosus.",
      "features": {
        "generalAmenities": [
          "speakers",
          "fitness center",
          "fireplace",
          "jacuzzi",
          "24h reception",
          "bar",
          "outdoor music",
          "playground",
          "karaoke",
          "parking",
          "pet friendly",
          "library",
          "restaurant"
        ],
        "roomAmenities": [
          "TV",
          "hypoallergic bedding",
          "kitchen facilities",
          "safe"
        ],
        "neighbourhoods": [
          "theatre",
          "lake",
          "forest",
          "cinema",
          "zoo",
          "church",
          "old town",
          "historical monument",
          "restaurant",
          "national park",
          "sea",
          "mountains",
          "mall",
          "amusement park"
        ],
        "handicapAccesibility": ["blind friendly"]
      },
      "sleepingDetails": { "maxCapacity": 1, "amountOfBeds": 1 },
      "checkInHour": "12pm",
      "checkOutHour": "10am",
      "distanceFromCityCenterInKM": 19,
      "contactDetails": {
        "phone": "211-258-8065 x228",
        "email": "WhoompThereitIs12@yahoo.com"
      }
    },
    {
      "id": 10053,
      "venueId": 68,
      "location": { "postalCode": "34-336", "name": "Cindyport" },
      "pricePerNightInEUR": "328.00",
      "rating": 4.5,
      "numberOfReviews": 7044,
      "capacity": 5,
      "name": "Da Doo Ron Ron (When He Walked Me Home)",
      "albumId": 33,
      "description": "Casus admiratio crudelis. Concido delego demoror capillus altus audax derideo corrigo. Curtus adsum cognatus astrum.",
      "features": {
        "generalAmenities": [
          "pool",
          "pet friendly",
          "garden",
          "karaoke",
          "playground",
          "jacuzzi",
          "fireplace",
          "WiFi",
          "outdoor music",
          "restaurant",
          "indoor music",
          "fitness center",
          "bar",
          "24h reception",
          "library",
          "speakers"
        ],
        "roomAmenities": ["bathroom facilities", "hypoallergic bedding", "TV"],
        "neighbourhoods": [
          "historical monument",
          "sea",
          "mall",
          "theatre",
          "park"
        ],
        "handicapAccesibility": ["deaf friendly", "blind friendly"]
      },
      "sleepingDetails": { "maxCapacity": 5, "amountOfBeds": 5 },
      "checkInHour": "12pm",
      "checkOutHour": "10am",
      "distanceFromCityCenterInKM": 26,
      "contactDetails": {
        "phone": "1-304-593-3891",
        "email": "DaDooRonRonWhenHeWalkedMeHome_Cindyport@hotmail.com"
      }
    },
    {
      "id": 196,
      "venueId": 69,
      "location": { "postalCode": "78-320", "name": "Bednarbury" },
      "pricePerNightInEUR": "757.00",
      "rating": 3.8,
      "numberOfReviews": 6156,
      "capacity": 1,
      "name": "Stop! in the Name of Love",
      "albumId": 32,
      "description": "Decor colligo conitor culpa. Vehemens earum demum confugo commodi vulgus.",
      "features": {
        "generalAmenities": [
          "pool",
          "bar",
          "indoor music",
          "jacuzzi",
          "fitness center",
          "WiFi",
          "library",
          "outdoor music",
          "restaurant",
          "pet friendly",
          "speakers"
        ],
        "roomAmenities": [
          "bathroom facilities",
          "kitchen facilities",
          "hypoallergic bedding",
          "safe",
          "TV"
        ],
        "neighbourhoods": [
          "museum",
          "mountains",
          "historical monument",
          "sea",
          "cinema",
          "zoo"
        ],
        "handicapAccesibility": ["deaf friendly", "short-grown friendly"]
      },
      "sleepingDetails": { "maxCapacity": 1, "amountOfBeds": 1 },
      "checkInHour": "12pm",
      "checkOutHour": "10am",
      "distanceFromCityCenterInKM": 4,
      "contactDetails": {
        "phone": "1-635-860-2121 x114",
        "email": "StopintheNameofLove'Bednarbury@gmail.com"
      }
    },
    {
      "id": 915,
      "venueId": 70,
      "location": { "postalCode": "45-515", "name": "East Rossie" },
      "pricePerNightInEUR": "129.00",
      "rating": 1.9,
      "numberOfReviews": 8273,
      "capacity": 2,
      "name": "Abracadabra",
      "albumId": 31,
      "description": "Creptio tempore adsum aestas caecus succedo inventore laborum. Curo perferendis vinum adiuvo textus causa conor. Celo suus cubitum allatus tenax volup. Vel uredo sum accommodo casus adficio culpo spiritus talio alii. Cruentus culpo vehemens spargo doloribus.",
      "features": {
        "generalAmenities": [
          "library",
          "WiFi",
          "restaurant",
          "24h reception",
          "pool",
          "garden",
          "speakers",
          "bar"
        ],
        "roomAmenities": [
          "safe",
          "hypoallergic bedding",
          "bathroom facilities",
          "TV",
          "kitchen facilities"
        ],
        "neighbourhoods": [
          "national park",
          "museum",
          "forest",
          "cinema",
          "restaurant",
          "park",
          "old town",
          "amusement park",
          "historical monument",
          "theatre",
          "mall",
          "church",
          "sea",
          "zoo",
          "mountains"
        ],
        "handicapAccesibility": ["blind friendly"]
      },
      "sleepingDetails": { "maxCapacity": 2, "amountOfBeds": 1 },
      "checkInHour": "12pm",
      "checkOutHour": "10am",
      "distanceFromCityCenterInKM": 30,
      "contactDetails": {
        "phone": "(432) 651-7048",
        "email": "Abracadabra_EastRossie87@gmail.com"
      }
    },
    {
      "id": 14757,
      "venueId": 71,
      "location": { "postalCode": "23-810", "name": "New Antwon" },
      "pricePerNightInEUR": "811.00",
      "rating": 4.1,
      "numberOfReviews": 6013,
      "capacity": 7,
      "name": "Purple Rain",
      "albumId": 30,
      "description": "Crustulum viriliter adicio. Cur verecundia carmen autus argumentum incidunt cernuus. Casus strues volubilis angelus voluptas derideo curso. Testimonium audeo aptus. Caritas depraedor condico aliquam bis. Cubicularis quidem taceo confero repellat.",
      "features": {
        "generalAmenities": [
          "playground",
          "outdoor music",
          "jacuzzi",
          "bar",
          "fireplace",
          "speakers"
        ],
        "roomAmenities": ["safe"],
        "neighbourhoods": [
          "zoo",
          "mall",
          "sea",
          "lake",
          "cinema",
          "restaurant",
          "park",
          "old town",
          "national park",
          "historical monument",
          "museum",
          "church",
          "mountains",
          "theatre"
        ],
        "handicapAccesibility": []
      },
      "sleepingDetails": { "maxCapacity": 7, "amountOfBeds": 6 },
      "checkInHour": "12pm",
      "checkOutHour": "10am",
      "distanceFromCityCenterInKM": 3,
      "contactDetails": {
        "phone": "(523) 919-3250",
        "email": "PurpleRain.NewAntwon@gmail.com"
      }
    },
    {
      "id": 624,
      "venueId": 72,
      "location": { "postalCode": "08-541", "name": "Toychester" },
      "pricePerNightInEUR": "414.00",
      "rating": 2.2,
      "numberOfReviews": 1438,
      "capacity": 6,
      "name": "Eye of the Tiger",
      "albumId": 29,
      "description": "Carus cinis tantillus celebrer coniecto vita ambitus sustineo. Vestrum universe vulgaris sponte eius curriculum.",
      "features": {
        "generalAmenities": ["karaoke", "WiFi", "24h reception"],
        "roomAmenities": [
          "safe",
          "hypoallergic bedding",
          "TV",
          "kitchen facilities"
        ],
        "neighbourhoods": [
          "church",
          "cinema",
          "park",
          "restaurant",
          "national park",
          "amusement park"
        ],
        "handicapAccesibility": []
      },
      "sleepingDetails": { "maxCapacity": 6, "amountOfBeds": 3 },
      "checkInHour": "12pm",
      "checkOutHour": "10am",
      "distanceFromCityCenterInKM": 22,
      "contactDetails": {
        "phone": "1-817-623-9924",
        "email": "EyeoftheTiger_Toychester@hotmail.com"
      }
    },
    {
      "id": 12832,
      "venueId": 73,
      "location": { "postalCode": "95-730", "name": "Stoneberg" },
      "pricePerNightInEUR": "134.00",
      "rating": 4.5,
      "numberOfReviews": 9165,
      "capacity": 6,
      "name": "Save the Last Dance For Me",
      "albumId": 28,
      "description": "Aestivus nostrum copiose. Temporibus carcer advenio peccatus torrens vado sint charisma quisquam culpo. Nemo cultura illum aggredior bis quo.",
      "features": {
        "generalAmenities": [
          "speakers",
          "jacuzzi",
          "pet friendly",
          "playground",
          "fireplace",
          "karaoke",
          "parking"
        ],
        "roomAmenities": [
          "kitchen facilities",
          "hypoallergic bedding",
          "bathroom facilities",
          "TV",
          "safe"
        ],
        "neighbourhoods": ["amusement park", "mountains", "museum", "lake"],
        "handicapAccesibility": []
      },
      "sleepingDetails": { "maxCapacity": 6, "amountOfBeds": 3 },
      "checkInHour": "12pm",
      "checkOutHour": "10am",
      "distanceFromCityCenterInKM": 20,
      "contactDetails": {
        "phone": "404-954-3561 x4021",
        "email": "SavetheLastDanceForMe.Stoneberg@yahoo.com"
      }
    },
    {
      "id": 13271,
      "venueId": 74,
      "location": { "postalCode": "13-004", "name": "South Ralph" },
      "pricePerNightInEUR": "671.00",
      "rating": 4.6,
      "numberOfReviews": 8987,
      "capacity": 12,
      "name": "The Great Pretender",
      "albumId": 27,
      "description": "Virga adhuc sordeo provident textilis. Agnitio fugiat cognomen blandior vester aiunt cohibeo despecto. Blandior aegrus turbo esse bibo accedo caveo volubilis.",
      "features": {
        "generalAmenities": [
          "playground",
          "parking",
          "library",
          "bar",
          "pool",
          "WiFi",
          "restaurant",
          "garden",
          "fireplace",
          "outdoor music",
          "fitness center",
          "indoor music",
          "pet friendly"
        ],
        "roomAmenities": ["TV"],
        "neighbourhoods": [
          "amusement park",
          "historical monument",
          "lake",
          "church",
          "sea"
        ],
        "handicapAccesibility": []
      },
      "sleepingDetails": { "maxCapacity": 12, "amountOfBeds": 6 },
      "checkInHour": "12pm",
      "checkOutHour": "10am",
      "distanceFromCityCenterInKM": 12,
      "contactDetails": {
        "phone": "(787) 256-5791 x48430",
        "email": "TheGreatPretender&SouthRalph@hotmail.com"
      }
    },
    {
      "id": 3202,
      "venueId": 75,
      "location": { "postalCode": "63-430", "name": "Hudsonton" },
      "pricePerNightInEUR": "207.00",
      "rating": 1,
      "numberOfReviews": 850,
      "capacity": 4,
      "name": "Family Affair",
      "albumId": 26,
      "description": "Assumenda deludo surculus avarus utilis. Pel villa caterva. Valens nulla qui audeo defluo ciminatio ager. Tricesimus repellat argumentum colligo stella tamen absque. Esse statua vitae celer. Uterque sed aegrotatio vis cogo atque ciminatio territo. Solutio voluntarius stipes adsidue.",
      "features": {
        "generalAmenities": [
          "pet friendly",
          "fitness center",
          "library",
          "WiFi",
          "speakers",
          "fireplace",
          "indoor music",
          "karaoke",
          "outdoor music",
          "pool"
        ],
        "roomAmenities": ["kitchen facilities", "hypoallergic bedding"],
        "neighbourhoods": [
          "sea",
          "cinema",
          "old town",
          "church",
          "theatre",
          "national park"
        ],
        "handicapAccesibility": ["blind friendly", "short-grown friendly"]
      },
      "sleepingDetails": { "maxCapacity": 4, "amountOfBeds": 3 },
      "checkInHour": "12pm",
      "checkOutHour": "10am",
      "distanceFromCityCenterInKM": 21,
      "contactDetails": {
        "phone": "1-826-378-4998 x674",
        "email": "FamilyAffair.Hudsonton21@hotmail.com"
      }
    },
    {
      "id": 17785,
      "venueId": 76,
      "location": { "postalCode": "69-408", "name": "Lake Melisastad" },
      "pricePerNightInEUR": "920.00",
      "rating": 3.5,
      "numberOfReviews": 301,
      "capacity": 8,
      "name": "How You Remind Me",
      "albumId": 25,
      "description": "Sperno autem absorbeo ara aro. Tego audax laudantium. Suspendo studio aro usus acceptus solium articulus.",
      "features": {
        "generalAmenities": [
          "playground",
          "jacuzzi",
          "pool",
          "fitness center",
          "24h reception",
          "fireplace",
          "restaurant",
          "karaoke",
          "WiFi",
          "outdoor music",
          "speakers",
          "indoor music"
        ],
        "roomAmenities": ["TV"],
        "neighbourhoods": [
          "mall",
          "historical monument",
          "old town",
          "amusement park",
          "national park",
          "mountains"
        ],
        "handicapAccesibility": [
          "blind friendly",
          "deaf friendly",
          "wheelchair friendly",
          "short-grown friendly"
        ]
      },
      "sleepingDetails": { "maxCapacity": 8, "amountOfBeds": 8 },
      "checkInHour": "12pm",
      "checkOutHour": "10am",
      "distanceFromCityCenterInKM": 23,
      "contactDetails": {
        "phone": "(392) 950-6242 x0894",
        "email": "HowYouRemindMe22@gmail.com"
      }
    },
    {
      "id": 19391,
      "venueId": 77,
      "location": { "postalCode": "25-699", "name": "South Emiestad" },
      "pricePerNightInEUR": "267.00",
      "rating": 3.5,
      "numberOfReviews": 2819,
      "capacity": 12,
      "name": "Give Me Everything",
      "albumId": 24,
      "description": "Degusto ullam demum altus. Videlicet tumultus taedium caveo ater adfectus cursus administratio conspergo.",
      "features": {
        "generalAmenities": [
          "fireplace",
          "outdoor music",
          "24h reception",
          "karaoke",
          "playground",
          "WiFi",
          "library",
          "pool",
          "indoor music",
          "pet friendly",
          "restaurant",
          "speakers",
          "jacuzzi",
          "bar",
          "parking",
          "fitness center"
        ],
        "roomAmenities": [
          "hypoallergic bedding",
          "safe",
          "TV",
          "bathroom facilities"
        ],
        "neighbourhoods": ["theatre", "cinema", "church"],
        "handicapAccesibility": ["deaf friendly", "short-grown friendly"]
      },
      "sleepingDetails": { "maxCapacity": 12, "amountOfBeds": 7 },
      "checkInHour": "12pm",
      "checkOutHour": "10am",
      "distanceFromCityCenterInKM": 28,
      "contactDetails": {
        "phone": "207-835-1419 x33378",
        "email": "GiveMeEverything^SouthEmiestad12@hotmail.com"
      }
    },
    {
      "id": 1473,
      "venueId": 78,
      "location": { "postalCode": "58-477", "name": "New Laverna" },
      "pricePerNightInEUR": "830.00",
      "rating": 4.7,
      "numberOfReviews": 2316,
      "capacity": 6,
      "name": "The Glow-Worm",
      "albumId": 23,
      "description": "Ambitus thema acerbitas amitto. Averto volutabrum cohaero cogo termes conservo suasoria tondeo facilis. Urbanus coaegresco depraedor tametsi tonsor pauper. Sortitus vulpes voro viscus spoliatio ultio urbs. Adsum abutor adhuc. Ullam dolores attollo succedo calcar alveus contabesco solvo desolo.",
      "features": {
        "generalAmenities": [
          "bar",
          "jacuzzi",
          "speakers",
          "WiFi",
          "pool",
          "parking",
          "pet friendly",
          "indoor music",
          "restaurant",
          "fitness center",
          "playground"
        ],
        "roomAmenities": [
          "safe",
          "kitchen facilities",
          "hypoallergic bedding",
          "TV",
          "bathroom facilities"
        ],
        "neighbourhoods": [
          "sea",
          "theatre",
          "lake",
          "museum",
          "park",
          "forest",
          "old town",
          "restaurant"
        ],
        "handicapAccesibility": ["deaf friendly", "blind friendly"]
      },
      "sleepingDetails": { "maxCapacity": 6, "amountOfBeds": 3 },
      "checkInHour": "12pm",
      "checkOutHour": "10am",
      "distanceFromCityCenterInKM": 6,
      "contactDetails": {
        "phone": "234.689.0220 x56939",
        "email": "TheGlow-Worm1@yahoo.com"
      }
    },
    {
      "id": 16926,
      "venueId": 79,
      "location": { "postalCode": "71-781", "name": "Hanestad" },
      "pricePerNightInEUR": "680.00",
      "rating": 3,
      "numberOfReviews": 3677,
      "capacity": 10,
      "name": "Wedding Bell Blues",
      "albumId": 22,
      "description": "Carmen conqueror uterque. Benigne vehemens ceno acidus casus votum abscido curiositas venustas veritatis.",
      "features": {
        "generalAmenities": [
          "indoor music",
          "pet friendly",
          "parking",
          "outdoor music"
        ],
        "roomAmenities": [
          "bathroom facilities",
          "hypoallergic bedding",
          "safe"
        ],
        "neighbourhoods": [
          "mountains",
          "museum",
          "amusement park",
          "national park",
          "restaurant",
          "historical monument",
          "old town",
          "park",
          "zoo",
          "sea"
        ],
        "handicapAccesibility": [
          "short-grown friendly",
          "wheelchair friendly",
          "blind friendly"
        ]
      },
      "sleepingDetails": { "maxCapacity": 10, "amountOfBeds": 8 },
      "checkInHour": "12pm",
      "checkOutHour": "10am",
      "distanceFromCityCenterInKM": 23,
      "contactDetails": {
        "phone": "1-544-922-1145",
        "email": "WeddingBellBlues_Hanestad74@gmail.com"
      }
    },
    {
      "id": 3833,
      "venueId": 80,
      "location": { "postalCode": "51-638", "name": "West Hartford" },
      "pricePerNightInEUR": "645.00",
      "rating": 4.6,
      "numberOfReviews": 3754,
      "capacity": 5,
      "name": "Promiscuous",
      "albumId": 21,
      "description": "Vester abutor cupiditate confido surculus modi. Creptio clementia curis. Thesaurus celer aut. Debeo ceno considero titulus accusantium.",
      "features": {
        "generalAmenities": [
          "indoor music",
          "bar",
          "parking",
          "garden",
          "playground",
          "restaurant",
          "pet friendly",
          "WiFi",
          "outdoor music",
          "speakers",
          "jacuzzi",
          "library",
          "fireplace",
          "fitness center",
          "karaoke",
          "24h reception",
          "pool"
        ],
        "roomAmenities": [
          "safe",
          "bathroom facilities",
          "kitchen facilities",
          "hypoallergic bedding"
        ],
        "neighbourhoods": [
          "church",
          "sea",
          "museum",
          "amusement park",
          "forest",
          "mountains"
        ],
        "handicapAccesibility": []
      },
      "sleepingDetails": { "maxCapacity": 5, "amountOfBeds": 5 },
      "checkInHour": "12pm",
      "checkOutHour": "10am",
      "distanceFromCityCenterInKM": 27,
      "contactDetails": {
        "phone": "294-229-9012 x7915",
        "email": "Promiscuous66@yahoo.com"
      }
    },
    {
      "id": 491,
      "venueId": 81,
      "location": { "postalCode": "36-967", "name": "West Rickfort" },
      "pricePerNightInEUR": "688.00",
      "rating": 4,
      "numberOfReviews": 9691,
      "capacity": 1,
      "name": "Let's Dance",
      "albumId": 20,
      "description": "Crustulum surgo aequus virtus perferendis contabesco volo apud sophismata thermae. Bibo bibo conculco cibus tabula coniecto aiunt cogito ancilla. Admiratio solus super terreo rem cariosus tot. Solum solio aestus ciminatio timidus tum. Colligo deprimo aurum quia consuasor ratione cohors solum alienus cattus. Deripio audeo patior tempore valens.",
      "features": {
        "generalAmenities": [
          "playground",
          "jacuzzi",
          "parking",
          "speakers",
          "fitness center",
          "outdoor music",
          "library",
          "garden",
          "fireplace"
        ],
        "roomAmenities": ["TV", "hypoallergic bedding"],
        "neighbourhoods": [
          "old town",
          "mountains",
          "restaurant",
          "forest",
          "historical monument",
          "mall",
          "church",
          "lake",
          "cinema",
          "park",
          "amusement park",
          "theatre",
          "zoo"
        ],
        "handicapAccesibility": ["short-grown friendly"]
      },
      "sleepingDetails": { "maxCapacity": 1, "amountOfBeds": 1 },
      "checkInHour": "12pm",
      "checkOutHour": "10am",
      "distanceFromCityCenterInKM": 20,
      "contactDetails": {
        "phone": "438-543-3337 x417",
        "email": "LetsDance85@gmail.com"
      }
    },
    {
      "id": 12657,
      "venueId": 82,
      "location": { "postalCode": "16-511", "name": "Enaburgh" },
      "pricePerNightInEUR": "257.00",
      "rating": 1.3,
      "numberOfReviews": 5745,
      "capacity": 5,
      "name": "Check On It",
      "albumId": 19,
      "description": "Sordeo voluntarius sulum civitas aperiam summisse creo ut ducimus capto. Sonitus adamo bis consectetur tonsor fugit sapiente admoveo decerno ambitus. Censura spoliatio voluptatibus summa deripio soleo deorsum. Vindico desolo cuppedia brevis voluptatum voco titulus tergo defetiscor.",
      "features": {
        "generalAmenities": [
          "jacuzzi",
          "playground",
          "24h reception",
          "indoor music",
          "fireplace",
          "fitness center",
          "outdoor music"
        ],
        "roomAmenities": ["kitchen facilities", "TV", "hypoallergic bedding"],
        "neighbourhoods": [
          "historical monument",
          "theatre",
          "museum",
          "cinema"
        ],
        "handicapAccesibility": []
      },
      "sleepingDetails": { "maxCapacity": 5, "amountOfBeds": 5 },
      "checkInHour": "12pm",
      "checkOutHour": "10am",
      "distanceFromCityCenterInKM": 21,
      "contactDetails": {
        "phone": "1-784-471-2581",
        "email": "CheckOnIt_Enaburgh30@yahoo.com"
      }
    },
    {
      "id": 12717,
      "venueId": 83,
      "location": { "postalCode": "13-987", "name": "Nitzscheboro" },
      "pricePerNightInEUR": "511.00",
      "rating": 5,
      "numberOfReviews": 8299,
      "capacity": 5,
      "name": "Want Ads",
      "albumId": 18,
      "description": "Urbs calamitas turpis tametsi vae. Cibus suspendo ullam viscus sui. Utpote auditor quos decretum ara amaritudo. Sustineo eaque vix trepide. Suspendo corrigo coruscus arguo vinco supellex. Vulgo abscido vestigium tonsor arto curso illo aegre.",
      "features": {
        "generalAmenities": [
          "indoor music",
          "bar",
          "fitness center",
          "speakers",
          "playground",
          "jacuzzi",
          "library",
          "WiFi",
          "24h reception",
          "fireplace",
          "karaoke",
          "garden",
          "outdoor music",
          "parking"
        ],
        "roomAmenities": [
          "safe",
          "kitchen facilities",
          "bathroom facilities",
          "TV"
        ],
        "neighbourhoods": [
          "mall",
          "church",
          "national park",
          "sea",
          "restaurant",
          "lake",
          "forest",
          "amusement park",
          "mountains",
          "theatre",
          "park",
          "old town",
          "historical monument"
        ],
        "handicapAccesibility": []
      },
      "sleepingDetails": { "maxCapacity": 5, "amountOfBeds": 3 },
      "checkInHour": "12pm",
      "checkOutHour": "10am",
      "distanceFromCityCenterInKM": 23,
      "contactDetails": {
        "phone": "(376) 786-0234 x078",
        "email": "WantAds62@hotmail.com"
      }
    },
    {
      "id": 19892,
      "venueId": 84,
      "location": { "postalCode": "66-300", "name": "South Astrid" },
      "pricePerNightInEUR": "646.00",
      "rating": 1.2,
      "numberOfReviews": 224,
      "capacity": 7,
      "name": "Wicked Game",
      "albumId": 17,
      "description": "Tum allatus carcer terminatio. Accendo cado adhuc statua comparo consequuntur quidem cibo sit. Termes aduro xiphias alii thalassinus voluptatem. Infit via una eum apto deleo laborum atque. Comburo balbus voluptate. Cometes tabernus crastinus civis damnatio basium.",
      "features": {
        "generalAmenities": [
          "pet friendly",
          "parking",
          "playground",
          "WiFi",
          "outdoor music",
          "indoor music",
          "restaurant",
          "fitness center",
          "garden",
          "24h reception",
          "karaoke",
          "bar"
        ],
        "roomAmenities": ["hypoallergic bedding", "kitchen facilities", "TV"],
        "neighbourhoods": ["national park", "mall", "cinema"],
        "handicapAccesibility": ["blind friendly", "short-grown friendly"]
      },
      "sleepingDetails": { "maxCapacity": 7, "amountOfBeds": 7 },
      "checkInHour": "12pm",
      "checkOutHour": "10am",
      "distanceFromCityCenterInKM": 5,
      "contactDetails": {
        "phone": "787-691-7665",
        "email": "WickedGame_SouthAstrid@hotmail.com"
      }
    },
    {
      "id": 12328,
      "venueId": 85,
      "location": { "postalCode": "20-017", "name": "Lake Luigibury" },
      "pricePerNightInEUR": "182.00",
      "rating": 1,
      "numberOfReviews": 6719,
      "capacity": 6,
      "name": "Can't Get Enough of Your Love",
      "albumId": 16,
      "description": "Unde tego blanditiis capitulus vulnero adaugeo cinis vinco vulariter. Ventus ambitus coma officia color stella. Adulescens apud adipiscor apto commodo ocer sumo asporto ter cohors. Coniecto stella aegrus somniculosus cena. Comprehendo tum casus sumo vespillo speculum. Capitulus crudelis facilis cicuta verbera utilis acies capitulus cibo basium. Casso cariosus cariosus.",
      "features": {
        "generalAmenities": [
          "karaoke",
          "parking",
          "24h reception",
          "jacuzzi",
          "outdoor music",
          "bar",
          "indoor music",
          "pool",
          "restaurant",
          "playground",
          "garden",
          "speakers"
        ],
        "roomAmenities": [
          "kitchen facilities",
          "bathroom facilities",
          "hypoallergic bedding",
          "safe"
        ],
        "neighbourhoods": [
          "zoo",
          "theatre",
          "restaurant",
          "cinema",
          "museum",
          "old town",
          "park",
          "historical monument"
        ],
        "handicapAccesibility": ["short-grown friendly", "wheelchair friendly"]
      },
      "sleepingDetails": { "maxCapacity": 6, "amountOfBeds": 5 },
      "checkInHour": "12pm",
      "checkOutHour": "10am",
      "distanceFromCityCenterInKM": 12,
      "contactDetails": {
        "phone": "388.498.3358 x87435",
        "email": "CantGetEnoughofYourLove58@yahoo.com"
      }
    },
    {
      "id": 17433,
      "venueId": 86,
      "location": { "postalCode": "56-486", "name": "Jameyton" },
      "pricePerNightInEUR": "17.00",
      "rating": 3.4,
      "numberOfReviews": 2836,
      "capacity": 4,
      "name": "Dizzy",
      "albumId": 15,
      "description": "Utique repellat ver canis somnus cultellus cupiditas. Creber itaque inflammatio spiculum quaerat adhuc vergo pecus aperte labore. Toties desidero spiritus. Spoliatio ait vacuus velit utilis.",
      "features": {
        "generalAmenities": [
          "WiFi",
          "fireplace",
          "jacuzzi",
          "outdoor music",
          "library",
          "speakers",
          "pool",
          "restaurant",
          "parking",
          "playground",
          "24h reception",
          "pet friendly",
          "indoor music"
        ],
        "roomAmenities": [
          "bathroom facilities",
          "TV",
          "kitchen facilities",
          "hypoallergic bedding"
        ],
        "neighbourhoods": [
          "mountains",
          "theatre",
          "zoo",
          "mall",
          "historical monument",
          "forest",
          "cinema"
        ],
        "handicapAccesibility": ["short-grown friendly", "wheelchair friendly"]
      },
      "sleepingDetails": { "maxCapacity": 4, "amountOfBeds": 3 },
      "checkInHour": "12pm",
      "checkOutHour": "10am",
      "distanceFromCityCenterInKM": 24,
      "contactDetails": {
        "phone": "948.473.1172",
        "email": "Dizzy94@hotmail.com"
      }
    },
    {
      "id": 19230,
      "venueId": 87,
      "location": { "postalCode": "02-938", "name": "North Marley" },
      "pricePerNightInEUR": "718.00",
      "rating": 3.4,
      "numberOfReviews": 471,
      "capacity": 8,
      "name": "Lean On Me",
      "albumId": 14,
      "description": "Deporto aestas solutio adulescens somniculosus ventus defungo. Appello laudantium tenetur vociferor aveho voluptates appositus sumo calco. Maiores varius depulso adhuc thesis decerno nam adversus vix reprehenderit. Atqui spiritus conitor crur avaritia adsidue solus aperte aliquid texo. Carus adhaero animi caveo defendo neque thymbra. Suscipio cotidie asperiores tamisium catena totam esse cohors.",
      "features": {
        "generalAmenities": [
          "speakers",
          "garden",
          "playground",
          "parking",
          "karaoke",
          "bar",
          "pet friendly",
          "pool",
          "outdoor music",
          "indoor music",
          "library",
          "restaurant",
          "jacuzzi"
        ],
        "roomAmenities": ["TV", "hypoallergic bedding", "bathroom facilities"],
        "neighbourhoods": ["old town", "cinema", "mountains"],
        "handicapAccesibility": []
      },
      "sleepingDetails": { "maxCapacity": 8, "amountOfBeds": 4 },
      "checkInHour": "12pm",
      "checkOutHour": "10am",
      "distanceFromCityCenterInKM": 21,
      "contactDetails": {
        "phone": "(719) 836-5859 x371",
        "email": "LeanOnMe_NorthMarley@gmail.com"
      }
    },
    {
      "id": 8952,
      "venueId": 88,
      "location": { "postalCode": "08-773", "name": "Euclid" },
      "pricePerNightInEUR": "398.00",
      "rating": 1.1,
      "numberOfReviews": 6195,
      "capacity": 6,
      "name": "One",
      "albumId": 13,
      "description": "Cometes colligo cauda vulgo bos maiores tenuis. Qui venia velociter utilis nostrum. Cerno debilito tandem viridis paulatim. Ater victus a.",
      "features": {
        "generalAmenities": [
          "speakers",
          "24h reception",
          "pet friendly",
          "library",
          "jacuzzi",
          "indoor music",
          "pool",
          "WiFi"
        ],
        "roomAmenities": [
          "safe",
          "bathroom facilities",
          "TV",
          "kitchen facilities"
        ],
        "neighbourhoods": ["church", "sea", "theatre", "museum", "zoo"],
        "handicapAccesibility": ["short-grown friendly"]
      },
      "sleepingDetails": { "maxCapacity": 6, "amountOfBeds": 6 },
      "checkInHour": "12pm",
      "checkOutHour": "10am",
      "distanceFromCityCenterInKM": 12,
      "contactDetails": {
        "phone": "491.914.4393 x12654",
        "email": "One.Euclid@gmail.com"
      }
    },
    {
      "id": 8413,
      "venueId": 89,
      "location": { "postalCode": "72-504", "name": "North Lexusburgh" },
      "pricePerNightInEUR": "196.00",
      "rating": 1.5,
      "numberOfReviews": 9877,
      "capacity": 5,
      "name": "Hound Dog",
      "albumId": 12,
      "description": "Umbra aestivus tribuo. Virgo considero alii umquam natus tandem paens delectatio. Corona terebro tristis audentia. Aestivus amoveo quaerat sunt campana subseco. Utpote validus solium ademptio. Defleo bestia pectus abeo turba cena aureus abundans amita. Tutamen thymum supellex adfero cultellus victoria tremo.",
      "features": {
        "generalAmenities": [
          "restaurant",
          "bar",
          "karaoke",
          "outdoor music",
          "24h reception",
          "jacuzzi",
          "library",
          "WiFi",
          "pet friendly",
          "playground",
          "fireplace"
        ],
        "roomAmenities": ["kitchen facilities", "safe", "TV"],
        "neighbourhoods": [
          "lake",
          "cinema",
          "mountains",
          "national park",
          "zoo",
          "historical monument",
          "mall",
          "park",
          "church"
        ],
        "handicapAccesibility": ["deaf friendly", "wheelchair friendly"]
      },
      "sleepingDetails": { "maxCapacity": 5, "amountOfBeds": 5 },
      "checkInHour": "12pm",
      "checkOutHour": "10am",
      "distanceFromCityCenterInKM": 1,
      "contactDetails": {
        "phone": "473.297.3051",
        "email": "HoundDog_NorthLexusburgh43@yahoo.com"
      }
    },
    {
      "id": 12714,
      "venueId": 90,
      "location": { "postalCode": "10-387", "name": "Country Club" },
      "pricePerNightInEUR": "987.00",
      "rating": 4.7,
      "numberOfReviews": 9618,
      "capacity": 5,
      "name": "Truly Madly Deeply",
      "albumId": 11,
      "description": "Volup decet arcus vilitas terra. Clementia auctus claro comis quasi. Laborum aequitas infit deficio ciminatio. Voluptate tantum beatae clarus sapiente temptatio cruentus capto sortitus caute. Adduco deprecator cunae conqueror. Amicitia pecto pecus. Certe aperte nesciunt theologus cohibeo vitiosus coepi.",
      "features": {
        "generalAmenities": ["pet friendly", "pool", "restaurant", "WiFi"],
        "roomAmenities": ["safe", "hypoallergic bedding"],
        "neighbourhoods": [
          "zoo",
          "cinema",
          "theatre",
          "restaurant",
          "park",
          "mall",
          "amusement park",
          "mountains",
          "forest",
          "sea",
          "lake",
          "historical monument",
          "old town",
          "museum",
          "national park"
        ],
        "handicapAccesibility": [
          "wheelchair friendly",
          "deaf friendly",
          "blind friendly"
        ]
      },
      "sleepingDetails": { "maxCapacity": 5, "amountOfBeds": 4 },
      "checkInHour": "12pm",
      "checkOutHour": "10am",
      "distanceFromCityCenterInKM": 6,
      "contactDetails": {
        "phone": "491-299-7009 x18098",
        "email": "TrulyMadlyDeeply`CountryClub@gmail.com"
      }
    },
    {
      "id": 1553,
      "venueId": 91,
      "location": { "postalCode": "60-074", "name": "Hertaview" },
      "pricePerNightInEUR": "822.00",
      "rating": 4.5,
      "numberOfReviews": 3049,
      "capacity": 12,
      "name": "Stairway to Heaven",
      "albumId": 10,
      "description": "Vomito audeo eligendi copia chirographum repudiandae adnuo. Tabesco viriliter alveus officiis alter arbor utilis. Comprehendo uberrime vulnus summopere ab claustrum. Patior amo defungo suadeo casus pauci tristis attollo arca ater.",
      "features": {
        "generalAmenities": [
          "karaoke",
          "speakers",
          "fireplace",
          "outdoor music",
          "garden",
          "parking"
        ],
        "roomAmenities": ["safe", "hypoallergic bedding", "kitchen facilities"],
        "neighbourhoods": [
          "historical monument",
          "forest",
          "amusement park",
          "cinema",
          "park",
          "restaurant",
          "lake",
          "museum",
          "mall",
          "zoo",
          "old town",
          "national park",
          "mountains",
          "church"
        ],
        "handicapAccesibility": ["short-grown friendly", "blind friendly"]
      },
      "sleepingDetails": { "maxCapacity": 12, "amountOfBeds": 8 },
      "checkInHour": "12pm",
      "checkOutHour": "10am",
      "distanceFromCityCenterInKM": 10,
      "contactDetails": {
        "phone": "657.604.4545 x410",
        "email": "StairwaytoHeaven74@gmail.com"
      }
    },
    {
      "id": 5764,
      "venueId": 92,
      "location": { "postalCode": "49-497", "name": "Ashaberg" },
      "pricePerNightInEUR": "38.00",
      "rating": 4.5,
      "numberOfReviews": 1064,
      "capacity": 10,
      "name": "Sir Duke",
      "albumId": 9,
      "description": "Voluptate adopto amplitudo. Censura verbera cognomen defluo sonitus corrigo crudelis soleo hic. Vapulus color super quidem summopere dedico. Autus degenero thymum solvo tristis crepusculum sustineo. Animi via canto virtus tracto adsum sumo. Utique totidem video censura traho urbanus atrocitas vestigium accendo avarus.",
      "features": {
        "generalAmenities": [
          "library",
          "garden",
          "WiFi",
          "restaurant",
          "fitness center",
          "speakers",
          "pet friendly",
          "pool"
        ],
        "roomAmenities": ["TV", "hypoallergic bedding", "kitchen facilities"],
        "neighbourhoods": [
          "forest",
          "theatre",
          "cinema",
          "mall",
          "lake",
          "sea",
          "amusement park",
          "mountains",
          "zoo",
          "church",
          "museum"
        ],
        "handicapAccesibility": [
          "short-grown friendly",
          "wheelchair friendly",
          "blind friendly",
          "deaf friendly"
        ]
      },
      "sleepingDetails": { "maxCapacity": 10, "amountOfBeds": 5 },
      "checkInHour": "12pm",
      "checkOutHour": "10am",
      "distanceFromCityCenterInKM": 23,
      "contactDetails": {
        "phone": "1-802-210-3085 x304",
        "email": "SirDuke^Ashaberg@gmail.com"
      }
    },
    {
      "id": 10269,
      "venueId": 93,
      "location": { "postalCode": "23-763", "name": "Catalina Foothills" },
      "pricePerNightInEUR": "999.00",
      "rating": 3.3,
      "numberOfReviews": 4342,
      "capacity": 2,
      "name": "My Life",
      "albumId": 8,
      "description": "Cunae eum vespillo arbitro quia admitto atqui. Acidus conqueror peior volubilis. Coerceo terreo curiositas voluptatem civis illum crepusculum tergum celebrer. Terror cruentus statua provident teres crustulum adnuo degusto caries. Vomer tenus balbus temperantia stultus deduco infit. Cultura agnosco ambulo deserunt nam.",
      "features": {
        "generalAmenities": [
          "garden",
          "library",
          "parking",
          "WiFi",
          "outdoor music",
          "speakers"
        ],
        "roomAmenities": ["hypoallergic bedding"],
        "neighbourhoods": [
          "sea",
          "park",
          "restaurant",
          "amusement park",
          "cinema",
          "zoo",
          "historical monument",
          "old town",
          "forest"
        ],
        "handicapAccesibility": [
          "wheelchair friendly",
          "deaf friendly",
          "short-grown friendly",
          "blind friendly"
        ]
      },
      "sleepingDetails": { "maxCapacity": 2, "amountOfBeds": 2 },
      "checkInHour": "12pm",
      "checkOutHour": "10am",
      "distanceFromCityCenterInKM": 28,
      "contactDetails": {
        "phone": "(475) 933-4132",
        "email": "MyLife.CatalinaFoothills@hotmail.com"
      }
    },
    {
      "id": 4444,
      "venueId": 94,
      "location": { "postalCode": "63-495", "name": "St. Peters" },
      "pricePerNightInEUR": "727.00",
      "rating": 4.5,
      "numberOfReviews": 302,
      "capacity": 2,
      "name": "Rum & Coca-Cola",
      "albumId": 7,
      "description": "Animadverto amplitudo amaritudo inflammatio. Nulla clam conor deficio triduana audax desparatus. Vester bellum canto apostolus concedo. Denique quibusdam adulatio tener truculenter amitto tam cupressus provident cribro.",
      "features": {
        "generalAmenities": [
          "jacuzzi",
          "indoor music",
          "bar",
          "karaoke",
          "fireplace",
          "pet friendly",
          "WiFi"
        ],
        "roomAmenities": [
          "safe",
          "bathroom facilities",
          "TV",
          "hypoallergic bedding"
        ],
        "neighbourhoods": [
          "old town",
          "theatre",
          "cinema",
          "museum",
          "amusement park",
          "lake",
          "mall",
          "church",
          "historical monument",
          "sea",
          "park",
          "restaurant",
          "national park"
        ],
        "handicapAccesibility": []
      },
      "sleepingDetails": { "maxCapacity": 2, "amountOfBeds": 1 },
      "checkInHour": "12pm",
      "checkOutHour": "10am",
      "distanceFromCityCenterInKM": 18,
      "contactDetails": {
        "phone": "(721) 731-1075 x226",
        "email": "RumCoca-Cola80@hotmail.com"
      }
    },
    {
      "id": 6045,
      "venueId": 95,
      "location": { "postalCode": "39-827", "name": "Palm Coast" },
      "pricePerNightInEUR": "268.00",
      "rating": 4.2,
      "numberOfReviews": 9111,
      "capacity": 6,
      "name": "Whole Lotta Love",
      "albumId": 6,
      "description": "Animadverto una varietas. Admoneo corrumpo cupiditas vallum ubi coaegresco. Delectatio contego adsuesco sol possimus. Cura adamo trucido consectetur. Cotidie aggero nobis quod sursum. Addo optio vero absum cohaero votum. Aurum numquam tabernus tonsor cena magnam urbs curvo auxilium.",
      "features": {
        "generalAmenities": [
          "WiFi",
          "jacuzzi",
          "parking",
          "garden",
          "pool",
          "karaoke",
          "restaurant",
          "fireplace",
          "24h reception"
        ],
        "roomAmenities": ["safe", "bathroom facilities", "kitchen facilities"],
        "neighbourhoods": [
          "restaurant",
          "zoo",
          "lake",
          "museum",
          "amusement park",
          "mall",
          "sea",
          "national park",
          "historical monument",
          "park",
          "forest",
          "theatre",
          "old town",
          "church",
          "mountains"
        ],
        "handicapAccesibility": []
      },
      "sleepingDetails": { "maxCapacity": 6, "amountOfBeds": 4 },
      "checkInHour": "12pm",
      "checkOutHour": "10am",
      "distanceFromCityCenterInKM": 25,
      "contactDetails": {
        "phone": "1-968-318-7744 x945",
        "email": "WholeLottaLove12@hotmail.com"
      }
    },
    {
      "id": 12204,
      "venueId": 96,
      "location": { "postalCode": "78-667", "name": "Cathedral City" },
      "pricePerNightInEUR": "767.00",
      "rating": 4.2,
      "numberOfReviews": 3939,
      "capacity": 9,
      "name": "Cold",
      "albumId": 5,
      "description": "Speculum velum ulterius curo adamo vae triduana consectetur vehemens. Assentator magnam aspicio. Trans tenax quod ait coniecto alioqui accedo.",
      "features": {
        "generalAmenities": [
          "outdoor music",
          "24h reception",
          "jacuzzi",
          "WiFi",
          "fitness center",
          "fireplace",
          "restaurant",
          "playground",
          "speakers",
          "indoor music",
          "library",
          "karaoke",
          "pool"
        ],
        "roomAmenities": [
          "kitchen facilities",
          "hypoallergic bedding",
          "safe",
          "bathroom facilities"
        ],
        "neighbourhoods": [
          "amusement park",
          "theatre",
          "church",
          "restaurant",
          "lake",
          "forest",
          "park",
          "sea",
          "museum",
          "mall"
        ],
        "handicapAccesibility": [
          "wheelchair friendly",
          "blind friendly",
          "short-grown friendly",
          "deaf friendly"
        ]
      },
      "sleepingDetails": { "maxCapacity": 9, "amountOfBeds": 8 },
      "checkInHour": "12pm",
      "checkOutHour": "10am",
      "distanceFromCityCenterInKM": 5,
      "contactDetails": {
        "phone": "612-947-2203",
        "email": "Cold_CathedralCity@gmail.com"
      }
    },
    {
      "id": 10058,
      "venueId": 97,
      "location": { "postalCode": "32-522", "name": "Wizaville" },
      "pricePerNightInEUR": "14.00",
      "rating": 4,
      "numberOfReviews": 1478,
      "capacity": 3,
      "name": "I Just Called to Say I Love You",
      "albumId": 4,
      "description": "Damno sortitus confero subnecto thema tricesimus. Currus adsuesco iste angulus tantum capitulus nulla calamitas.",
      "features": {
        "generalAmenities": [
          "fireplace",
          "library",
          "jacuzzi",
          "indoor music",
          "parking",
          "pool",
          "outdoor music",
          "karaoke",
          "restaurant"
        ],
        "roomAmenities": ["bathroom facilities", "TV", "hypoallergic bedding"],
        "neighbourhoods": ["amusement park", "national park", "cinema"],
        "handicapAccesibility": ["wheelchair friendly"]
      },
      "sleepingDetails": { "maxCapacity": 3, "amountOfBeds": 3 },
      "checkInHour": "12pm",
      "checkOutHour": "10am",
      "distanceFromCityCenterInKM": 30,
      "contactDetails": {
        "phone": "703-325-5726 x417",
        "email": "IJustCalledtoSayILoveYou14@gmail.com"
      }
    },
    {
      "id": 14290,
      "venueId": 98,
      "location": { "postalCode": "13-596", "name": "Okunevaview" },
      "pricePerNightInEUR": "459.00",
      "rating": 3.3,
      "numberOfReviews": 6452,
      "capacity": 6,
      "name": "Rock Around the Clock",
      "albumId": 3,
      "description": "Adulescens universe tonsor fugiat. Sponte vulticulus triduana vaco. Corrigo aliquam color vitae tergeo vilis adsuesco adinventitias. Subiungo thalassinus suus soleo absorbeo.",
      "features": {
        "generalAmenities": [
          "bar",
          "WiFi",
          "garden",
          "fitness center",
          "playground",
          "jacuzzi",
          "speakers",
          "library",
          "parking"
        ],
        "roomAmenities": ["TV", "bathroom facilities"],
        "neighbourhoods": [
          "cinema",
          "theatre",
          "lake",
          "church",
          "historical monument",
          "mountains",
          "forest",
          "zoo",
          "sea",
          "old town",
          "mall",
          "national park",
          "amusement park",
          "park",
          "museum"
        ],
        "handicapAccesibility": []
      },
      "sleepingDetails": { "maxCapacity": 6, "amountOfBeds": 4 },
      "checkInHour": "12pm",
      "checkOutHour": "10am",
      "distanceFromCityCenterInKM": 25,
      "contactDetails": {
        "phone": "649-801-7148 x49360",
        "email": "RockAroundtheClock_Okunevaview63@yahoo.com"
      }
    },
    {
      "id": 5414,
      "venueId": 99,
      "location": { "postalCode": "08-639", "name": "Bedford" },
      "pricePerNightInEUR": "408.00",
      "rating": 4.3,
      "numberOfReviews": 3595,
      "capacity": 6,
      "name": "Hey Ya!",
      "albumId": 2,
      "description": "Tantum synagoga dens desipio consequatur. Stella ultio brevis tui cerno. Voluptas stillicidium calcar depraedor claustrum voluptate repellendus appello condico tepidus. Angustus theca stultus deserunt supplanto minima utrum vorax accedo. Beatae textor eius caecus abbas. Congregatio valens totidem claudeo iste cruentus claustrum tutamen denique perferendis.",
      "features": {
        "generalAmenities": [
          "indoor music",
          "library",
          "garden",
          "restaurant",
          "karaoke",
          "parking",
          "jacuzzi",
          "outdoor music",
          "pet friendly"
        ],
        "roomAmenities": ["kitchen facilities", "TV"],
        "neighbourhoods": [
          "amusement park",
          "park",
          "theatre",
          "church",
          "sea",
          "historical monument",
          "old town",
          "museum",
          "zoo",
          "lake",
          "mall",
          "cinema",
          "forest",
          "mountains"
        ],
        "handicapAccesibility": ["short-grown friendly"]
      },
      "sleepingDetails": { "maxCapacity": 6, "amountOfBeds": 4 },
      "checkInHour": "12pm",
      "checkOutHour": "10am",
      "distanceFromCityCenterInKM": 30,
      "contactDetails": {
        "phone": "(861) 992-3466",
        "email": "HeyYa.Bedford38@yahoo.com"
      }
    },
    {
      "venueId": 100,
      "location": { "postalCode": "03-501", "name": "Bergestad" },
      "pricePerNightInEUR": "761.00",
      "rating": 4,
      "numberOfReviews": 1072,
      "capacity": 8,
      "name": "Ring My Bell",
      "albumId": 1,
      "description": "Theologus tertius uberrime. Acidus crudelis adversus. Theatrum ter thema illo urbs. Nulla deorsum tametsi in vulgivagus vado cornu ambitus. Somniculosus consuasor admoneo sublime casus delectus aurum perferendis undique. Tutis traho apto ustulo concedo ter autus demoror.",
      "features": {
        "generalAmenities": [
          "pool",
          "parking",
          "garden",
          "library",
          "WiFi",
          "jacuzzi",
          "fitness center"
        ],
        "roomAmenities": [
          "kitchen facilities",
          "bathroom facilities",
          "safe",
          "hypoallergic bedding"
        ],
        "neighbourhoods": [
          "cinema",
          "lake",
          "church",
          "historical monument",
          "old town",
          "park",
          "sea",
          "restaurant",
          "zoo",
          "forest",
          "museum",
          "mountains",
          "mall",
          "theatre",
          "amusement park"
        ],
        "handicapAccesibility": ["deaf friendly"]
      },
      "sleepingDetails": { "maxCapacity": 8, "amountOfBeds": 5 },
      "checkInHour": "12pm",
      "checkOutHour": "10am",
      "distanceFromCityCenterInKM": 26,
      "contactDetails": {
        "phone": "1-722-796-0829 x8146",
        "email": "RingMyBell8@yahoo.com"
      }
    }
  ]
}
